[
  {
    "id": "google-ChIJZ-P0tR",
    "name": "Number 73 Bar and Kitchen",
    "slug": "number-73-bar-and-kitchen",
    "category": "restaurants",
    "area": "waterlooville",
    "postcode": "PO7 7EX",
    "address": "73 London Rd",
    "lat": 50.8785021,
    "lng": -1.0333731,
    "phone": "023 9226 1618",
    "website": "http://www.number73bar.co.uk/",
    "description": "Number 73 Bar and Kitchen in Waterlooville. Professional restaurants serving the local community....",
    "rating": 4.6,
    "review_count": 419,
    "featured": true
  },
  {
    "id": "google-ChIJ5978lv",
    "name": "The Bird in Hand",
    "slug": "the-bird-in-hand",
    "category": "pubs",
    "area": "waterlooville",
    "postcode": "PO8 9RX",
    "address": "269 Lovedean Ln",
    "lat": 50.91501299999999,
    "lng": -1.0289355,
    "phone": "023 9238 6147",
    "website": "http://www.thebirdinhand.net/",
    "description": "The Bird in Hand in Waterlooville. Professional pubs serving the local community....",
    "rating": 4.3,
    "review_count": 1164,
    "featured": true
  },
  {
    "id": "google-ChIJV_Nk-Q",
    "name": "The Exchange",
    "slug": "the-exchange",
    "category": "restaurants",
    "area": "waterlooville",
    "postcode": "PO7 7EG",
    "address": "93 London Rd",
    "lat": 50.879568,
    "lng": -1.0322356,
    "phone": "023 9200 5200",
    "website": "https://www.exchangewvl.co.uk/",
    "description": "The Exchange in Waterlooville. Professional restaurants serving the local community....",
    "rating": 4.4,
    "review_count": 127,
    "featured": true
  },
  {
    "id": "google-ChIJn5OXxI",
    "name": "Ember Woodpecker",
    "slug": "ember-woodpecker",
    "category": "pubs",
    "area": "waterlooville",
    "postcode": "PO7 7RL",
    "address": "179 London Rd",
    "lat": 50.8857364,
    "lng": -1.0271197,
    "phone": "023 9225 1012",
    "website": "https://www.emberinns.co.uk/nationalsearch/southwest/the-woodpecker-waterlooville?utm_source=google&utm_medium=organic&utm_campaign=gmb-homepage",
    "description": "Ember Woodpecker in Waterlooville. Professional pubs serving the local community....",
    "rating": 4.2,
    "review_count": 1355,
    "featured": true
  },
  {
    "id": "google-ChIJ49yB8X",
    "name": "Koop+Kraft",
    "slug": "koopkraft",
    "category": "restaurants",
    "area": "waterlooville",
    "postcode": "PO8 8DH",
    "address": "45-47 London Rd",
    "lat": 50.8938204,
    "lng": -1.0190691,
    "phone": "023 9225 5100",
    "website": "http://www.koopkraft.co.uk/",
    "description": "Koop+Kraft in Waterlooville. Professional restaurants serving the local community....",
    "rating": 4.4,
    "review_count": 371,
    "featured": true
  },
  {
    "id": "google-ChIJGY_SNj",
    "name": "Four London Road",
    "slug": "four-london-road",
    "category": "restaurants",
    "area": "waterlooville",
    "postcode": "PO8 0BZ",
    "address": "4 London Rd",
    "lat": 50.9138234,
    "lng": -0.9959971999999998,
    "phone": "023 9425 1221",
    "website": "http://www.fourlondonroad.com/",
    "description": "Four London Road in Waterlooville. Professional restaurants serving the local community....",
    "rating": 4.6,
    "review_count": 805,
    "featured": true
  },
  {
    "id": "google-ChIJnT3y7X",
    "name": "The Chairmakers",
    "slug": "the-chairmakers",
    "category": "pubs",
    "area": "waterlooville",
    "postcode": "PO7 4QX",
    "address": "Apless Ln",
    "lat": 50.9019973,
    "lng": -1.1071618,
    "phone": "023 9226 5235",
    "website": "https://www.thechairmakers.co.uk/",
    "description": "The Chairmakers in Waterlooville. Professional pubs serving the local community....",
    "rating": 4.4,
    "review_count": 1168,
    "featured": true
  },
  {
    "id": "google-ChIJreVs9K",
    "name": "Shalimar",
    "slug": "shalimar",
    "category": "restaurants",
    "area": "waterlooville",
    "postcode": "PO7 6XE",
    "address": "9 Hambledon Parade",
    "lat": 50.8906505,
    "lng": -1.0453749,
    "phone": "023 9225 1565",
    "website": "http://www.shalimarrestaurant.co.uk/",
    "description": "Shalimar in Waterlooville. Professional restaurants serving the local community....",
    "rating": 4.4,
    "review_count": 691,
    "featured": true
  },
  {
    "id": "google-ChIJV9YcMs",
    "name": "Cowplain Cafe & Restaurant",
    "slug": "cowplain-cafe-restaurant",
    "category": "cafes",
    "area": "waterlooville",
    "postcode": "PO8 8UJ",
    "address": "57 London Rd",
    "lat": 50.8942674,
    "lng": -1.0185437,
    "phone": "023 9217 0960",
    "website": "",
    "description": "Cowplain Cafe & Restaurant in Waterlooville. Professional cafes serving the local community....",
    "rating": 4.8,
    "review_count": 192,
    "featured": true
  },
  {
    "id": "google-ChIJnUkqfA",
    "name": "The Farmer Inn",
    "slug": "the-farmer-inn",
    "category": "pubs",
    "area": "waterlooville",
    "postcode": "PO8 0TD",
    "address": "300 Catherington Ln",
    "lat": 50.9241968,
    "lng": -1.0130827,
    "phone": "023 9259 3280",
    "website": "http://farmerportsmouth.co.uk/",
    "description": "The Farmer Inn in Waterlooville. Professional pubs serving the local community....",
    "rating": 4.5,
    "review_count": 617,
    "featured": true
  },
  {
    "id": "google-ChIJid67Q9",
    "name": "The Harvest Home",
    "slug": "the-harvest-home",
    "category": "pubs",
    "area": "waterlooville",
    "postcode": "PO7 6LB",
    "address": "Southwick Rd",
    "lat": 50.9012621,
    "lng": -1.0755491,
    "phone": "023 9225 5086",
    "website": "https://www.harvesthomedenmeade.co.uk/?utm_source=googlemybusiness&utm_medium=organic&utm_campaign=googlemybusiness_website",
    "description": "The Harvest Home in Waterlooville. Professional pubs serving the local community....",
    "rating": 4.3,
    "review_count": 434,
    "featured": true
  },
  {
    "id": "google-ChIJg_PAcG",
    "name": "The Fox & Hounds",
    "slug": "the-fox-hounds",
    "category": "pubs",
    "area": "waterlooville",
    "postcode": "PO7 7BS",
    "address": "Fox Hounds",
    "lat": 50.8709187,
    "lng": -1.0246634,
    "phone": "07908 551170",
    "website": "https://www.thefoxandhoundswaterlooville.co.uk/index",
    "description": "The Fox & Hounds in Waterlooville. Professional pubs serving the local community....",
    "rating": 4.4,
    "review_count": 245,
    "featured": true
  },
  {
    "id": "google-ChIJ6XjhWm",
    "name": "Plough & Barleycorn",
    "slug": "plough-barleycorn",
    "category": "pubs",
    "area": "waterlooville",
    "postcode": "PO7 8NU",
    "address": "Westbrook Farm",
    "lat": 50.887851,
    "lng": -1.0078383,
    "phone": "023 9224 1596",
    "website": "http://www.ploughbarleycornpub.co.uk/?utm_source=gbp&utm_medium=Yext&y_source=1_MTIyOTQ3MzAtNzE1LWxvY2F0aW9uLndlYnNpdGU%3D",
    "description": "Plough & Barleycorn in Waterlooville. Professional pubs serving the local community....",
    "rating": 4.2,
    "review_count": 638,
    "featured": true
  },
  {
    "id": "google-ChIJe7XURz",
    "name": "The Ship & Bell",
    "slug": "the-ship-bell",
    "category": "pubs",
    "area": "waterlooville",
    "postcode": "PO8 0BZ",
    "address": "6 London Rd",
    "lat": 50.9140744,
    "lng": -0.9961074999999999,
    "phone": "023 9307 9301",
    "website": "http://www.shipandbellhorndean.co.uk/",
    "description": "The Ship & Bell in Waterlooville. Professional pubs serving the local community....",
    "rating": 4.2,
    "review_count": 562,
    "featured": true
  },
  {
    "id": "google-ChIJF2nkB8",
    "name": "The Forest of Bere",
    "slug": "the-forest-of-bere",
    "category": "pubs",
    "area": "waterlooville",
    "postcode": "PO7 6PP",
    "address": "Forest of Bere",
    "lat": 50.9034774,
    "lng": -1.0624093,
    "phone": "023 9226 3145",
    "website": "https://www.forestofberepub.co.uk/",
    "description": "The Forest of Bere in Waterlooville. Professional pubs serving the local community....",
    "rating": 4.4,
    "review_count": 171,
    "featured": true
  },
  {
    "id": "google-ChIJV8ClQ3",
    "name": "Red Rose Lounge",
    "slug": "red-rose-lounge",
    "category": "restaurants",
    "area": "waterlooville",
    "postcode": "PO7 7HG",
    "address": "258 London Rd",
    "lat": 50.8785967,
    "lng": -1.0325826,
    "phone": "023 9226 2846",
    "website": "http://www.redroselounge.co.uk/",
    "description": "Red Rose Lounge in Waterlooville. Professional restaurants serving the local community....",
    "rating": 4.4,
    "review_count": 164,
    "featured": true
  },
  {
    "id": "google-ChIJz7VYU4",
    "name": "Little Bay Eatery",
    "slug": "little-bay-eatery",
    "category": "cafes",
    "area": "waterlooville",
    "postcode": "PO7 7EB",
    "address": "1",
    "lat": 50.88061339999999,
    "lng": -1.0310498,
    "phone": "023 9217 4545",
    "website": "https://www.littlebayeatery.co.uk/",
    "description": "Little Bay Eatery in Waterlooville. Professional cafes serving the local community....",
    "rating": 4.7,
    "review_count": 109,
    "featured": true
  },
  {
    "id": "google-ChIJzwhHMX",
    "name": "Cafe Havana",
    "slug": "cafe-havana",
    "category": "cafes",
    "area": "waterlooville",
    "postcode": "PO7 7EB",
    "address": "Queens Parade",
    "lat": 50.8806936,
    "lng": -1.0310261,
    "phone": "",
    "website": "",
    "description": "Cafe Havana in Waterlooville. Professional cafes serving the local community....",
    "rating": 3.8,
    "review_count": 83,
    "featured": false
  },
  {
    "id": "google-ChIJ5fBMy3",
    "name": "Coffee Ville",
    "slug": "coffee-ville",
    "category": "cafes",
    "area": "waterlooville",
    "postcode": "PO7 7DT",
    "address": "Unit 7",
    "lat": 50.8800862,
    "lng": -1.0302934,
    "phone": "023 9226 3495",
    "website": "http://www.coffeevilleonline.co.uk/",
    "description": "Coffee Ville in Waterlooville. Professional cafes serving the local community....",
    "rating": 4.2,
    "review_count": 88,
    "featured": false
  },
  {
    "id": "google-ChIJzUX1VY",
    "name": "Chandlers",
    "slug": "chandlers",
    "category": "cafes",
    "area": "waterlooville",
    "postcode": "PO8 0JL",
    "address": "40c Drift Rd",
    "lat": 50.935614,
    "lng": -0.9997335,
    "phone": "023 9259 1777",
    "website": "https://www.chandlerscoffee.co.uk/",
    "description": "Chandlers in Waterlooville. Professional cafes serving the local community....",
    "rating": 4.6,
    "review_count": 260,
    "featured": true
  },
  {
    "id": "google-ChIJ2YTLxs",
    "name": "All About The Grind",
    "slug": "all-about-the-grind",
    "category": "cafes",
    "area": "waterlooville",
    "postcode": "PO7 7XQ",
    "address": "34H Aston Rd",
    "lat": 50.8867799,
    "lng": -1.0362951,
    "phone": "07774 359712",
    "website": "https://allaboutthegrind.shop/",
    "description": "All About The Grind in Waterlooville. Professional cafes serving the local community....",
    "rating": 4.9,
    "review_count": 32,
    "featured": false
  },
  {
    "id": "google-ChIJp8CmY9",
    "name": "Olives Cafe",
    "slug": "olives-cafe",
    "category": "cafes",
    "area": "waterlooville",
    "postcode": "PO7 5LJ",
    "address": "44 London Rd",
    "lat": 50.8674329,
    "lng": -1.0445269,
    "phone": "07476 090840",
    "website": "https://britamaps.org/details/olives-cafe-ChIJp8C",
    "description": "Olives Cafe in Waterlooville. Professional cafes serving the local community....",
    "rating": 4.4,
    "review_count": 69,
    "featured": false
  },
  {
    "id": "google-ChIJQbsxR3",
    "name": "Poppins Waterlooville",
    "slug": "poppins-waterlooville",
    "category": "cafes",
    "area": "waterlooville",
    "postcode": "PO7 7HG",
    "address": "266 London Rd",
    "lat": 50.8789329,
    "lng": -1.032438,
    "phone": "07496 140321",
    "website": "http://www.poppinsrestaurants.co.uk/",
    "description": "Poppins Waterlooville in Waterlooville. Professional cafes serving the local community....",
    "rating": 4.4,
    "review_count": 306,
    "featured": true
  },
  {
    "id": "google-ChIJEbxabb",
    "name": "The Bakehouse @ Denmead Limited",
    "slug": "the-bakehouse-denmead-limited",
    "category": "cafes",
    "area": "waterlooville",
    "postcode": "PO7 6NU",
    "address": "Hambledon Road",
    "lat": 50.9040633,
    "lng": -1.0660736,
    "phone": "023 9226 9864",
    "website": "http://www.bakehousecatering.co.uk/",
    "description": "The Bakehouse @ Denmead Limited in Waterlooville. Professional cafes serving the local community....",
    "rating": 4.5,
    "review_count": 86,
    "featured": false
  },
  {
    "id": "google-ChIJJXoldP",
    "name": "Beechwood Kitchen & Kiosks",
    "slug": "beechwood-kitchen-kiosks",
    "category": "cafes",
    "area": "waterlooville",
    "postcode": "PO8 0QE",
    "address": "Queen Elizabeth Country Park",
    "lat": 50.96128119999999,
    "lng": -0.9780865999999999,
    "phone": "0370 779 2030",
    "website": "https://www.hants.gov.uk/thingstodo/countryparks/qecp",
    "description": "Beechwood Kitchen & Kiosks in Waterlooville. Professional cafes serving the local community....",
    "rating": 4.2,
    "review_count": 121,
    "featured": true
  },
  {
    "id": "google-ChIJhdZ_wX",
    "name": "Costa Coffee",
    "slug": "costa-coffee",
    "category": "cafes",
    "area": "waterlooville",
    "postcode": "PO7 7FG",
    "address": "Wellington Retail Park",
    "lat": 50.881064,
    "lng": -1.034266,
    "phone": "0333 003 5883",
    "website": "https://www.costa.co.uk/?utm_campaign=ae21c31c-c72c-4802-b3e1-ec91bb04404e&utm_source=local",
    "description": "Costa Coffee in Waterlooville. Professional cafes serving the local community....",
    "rating": 4.4,
    "review_count": 630,
    "featured": true
  },
  {
    "id": "google-ChIJ6VGzOw",
    "name": "Babyccinos Play cafe",
    "slug": "babyccinos-play-cafe",
    "category": "cafes",
    "area": "waterlooville",
    "postcode": "PO7 7EQ",
    "address": "99-101 London Rd",
    "lat": 50.8799409,
    "lng": -1.0316593,
    "phone": "023 9355 3021",
    "website": "http://www.babyccins-playcafe.co.uk/",
    "description": "Babyccinos Play cafe in Waterlooville. Professional cafes serving the local community....",
    "rating": 4.8,
    "review_count": 66,
    "featured": false
  },
  {
    "id": "google-ChIJC52TXR",
    "name": "The Village Bakery",
    "slug": "the-village-bakery",
    "category": "cafes",
    "area": "waterlooville",
    "postcode": "PO7 5EW",
    "address": "142 London Rd",
    "lat": 50.8656404,
    "lng": -1.0462189,
    "phone": "07840 803555",
    "website": "",
    "description": "The Village Bakery in Waterlooville. Professional cafes serving the local community....",
    "rating": 4.5,
    "review_count": 153,
    "featured": true
  },
  {
    "id": "google-ChIJSQaoBn",
    "name": "Costa Coffee",
    "slug": "costa-coffee",
    "category": "cafes",
    "area": "waterlooville",
    "postcode": "PO8 8DF",
    "address": "27 London Rd",
    "lat": 50.8928278,
    "lng": -1.0199713,
    "phone": "0333 003 5883",
    "website": "https://www.costa.co.uk/?utm_campaign=ee45400f-9a54-4ba8-8437-014fe43934c2&utm_source=local",
    "description": "Costa Coffee in Waterlooville. Professional cafes serving the local community....",
    "rating": 4.3,
    "review_count": 390,
    "featured": true
  },
  {
    "id": "google-ChIJbfBI8n",
    "name": "The Spotted Cow, Waterlooville",
    "slug": "the-spotted-cow-waterlooville",
    "category": "pubs",
    "area": "waterlooville",
    "postcode": "PO8 8XJ",
    "address": "131 London Rd",
    "lat": 50.897593,
    "lng": -1.0168634,
    "phone": "023 9226 2039",
    "website": "https://www.spotted-cow-cowplain.co.uk/?utm_source=googlemybusiness&utm_medium=organic&utm_campaign=yext&utm_content=P229&y_source=1_MTIyMzcwNTgtNzE1LWxvY2F0aW9uLndlYnNpdGU%3D",
    "description": "The Spotted Cow, Waterlooville in Waterlooville. Professional pubs serving the local community....",
    "rating": 4.2,
    "review_count": 243,
    "featured": true
  },
  {
    "id": "google-ChIJdcXiLX",
    "name": "The Heroes, Waterlooville",
    "slug": "the-heroes-waterlooville",
    "category": "pubs",
    "area": "waterlooville",
    "postcode": "PO7 7DZ",
    "address": "125 London Rd",
    "lat": 50.8811366,
    "lng": -1.0307145,
    "phone": "023 9225 3068",
    "website": "https://www.heroeswaterlooville.co.uk/?utm_source=googlemybusiness&utm_medium=organic&utm_campaign=yext&utm_content=P213&y_source=1_MTIyMzcyMTYtNzE1LWxvY2F0aW9uLndlYnNpdGU%3D",
    "description": "The Heroes, Waterlooville in Waterlooville. Professional pubs serving the local community....",
    "rating": 4.3,
    "review_count": 494,
    "featured": true
  },
  {
    "id": "google-ChIJgb3uIF",
    "name": "The Centurion",
    "slug": "the-centurion",
    "category": "pubs",
    "area": "waterlooville",
    "postcode": "PO7 5RE",
    "address": "Crookhorn Ln",
    "lat": 50.8593079,
    "lng": -1.0301585,
    "phone": "023 9307 4608",
    "website": "http://www.thecenturionwaterlooville.co.uk/",
    "description": "The Centurion in Waterlooville. Professional pubs serving the local community....",
    "rating": 4.4,
    "review_count": 211,
    "featured": true
  },
  {
    "id": "google-ChIJGbulcz",
    "name": "The White Hart",
    "slug": "the-white-hart",
    "category": "pubs",
    "area": "waterlooville",
    "postcode": "PO7 6NG",
    "address": "Hambledon Rd",
    "lat": 50.90420349999999,
    "lng": -1.0694144,
    "phone": "023 9225 5953",
    "website": "https://thewhite-hart.com/",
    "description": "The White Hart in Waterlooville. Professional pubs serving the local community....",
    "rating": 4.1,
    "review_count": 1264,
    "featured": true
  },
  {
    "id": "google-ChIJN2M08M",
    "name": "George Inn",
    "slug": "george-inn",
    "category": "pubs",
    "area": "waterlooville",
    "postcode": "PO8 0AU",
    "address": "Finchdean",
    "lat": 50.9092654,
    "lng": -0.9515463,
    "phone": "023 9200 4930",
    "website": "https://www.georgeinnfinchdean.co.uk/",
    "description": "George Inn in Waterlooville. Professional pubs serving the local community....",
    "rating": 4.5,
    "review_count": 635,
    "featured": true
  },
  {
    "id": "google-ChIJ7RqhDj",
    "name": "The Fox & Hounds",
    "slug": "the-fox-hounds",
    "category": "pubs",
    "area": "waterlooville",
    "postcode": "PO7 6NA",
    "address": "School Ln",
    "lat": 50.9078415,
    "lng": -1.0882358,
    "phone": "023 9226 5984",
    "website": "http://www.foxandhounds-pub.co.uk/",
    "description": "The Fox & Hounds in Waterlooville. Professional pubs serving the local community....",
    "rating": 4.5,
    "review_count": 483,
    "featured": true
  },
  {
    "id": "google-ChIJgW5dCH",
    "name": "Asda Waterlooville Superstore",
    "slug": "asda-waterlooville-superstore",
    "category": "supermarkets",
    "area": "waterlooville",
    "postcode": "PO7 7XR",
    "address": "Portland Rd",
    "lat": 50.8794453,
    "lng": -1.0342102,
    "phone": "023 9225 0741",
    "website": "http://storelocator.asda.com/store/waterlooville",
    "description": "Asda Waterlooville Superstore in Waterlooville. Professional supermarkets serving the local community....",
    "rating": 3.5,
    "review_count": 241,
    "featured": true
  },
  {
    "id": "google-ChIJ2dVPKn",
    "name": "Sainsbury's",
    "slug": "sainsburys",
    "category": "supermarkets",
    "area": "waterlooville",
    "postcode": "PO7 7UL",
    "address": "Hambledon Rd",
    "lat": 50.88279199999999,
    "lng": -1.0346721,
    "phone": "023 9239 5222",
    "website": "https://stores.sainsburys.co.uk/2289/waterlooville?utm_source=gmb&utm_medium=yext&y_source=1_MTU1NjgyMDItNzE1LWxvY2F0aW9uLndlYnNpdGU%3D",
    "description": "Sainsbury's in Waterlooville. Professional supermarkets serving the local community....",
    "rating": 4.2,
    "review_count": 2753,
    "featured": true
  },
  {
    "id": "google-ChIJRUf1xY",
    "name": "Tesco Express",
    "slug": "tesco-express",
    "category": "supermarkets",
    "area": "waterlooville",
    "postcode": "PO7 7RJ",
    "address": "179 London Rd",
    "lat": 50.8852975,
    "lng": -1.027337,
    "phone": "0333 345 1091",
    "website": "https://www.tesco.com/store-locator/waterlooville/179-london-road?sc_cmp=ref*yg*stc*4343&utm_source=yext_google&utm_campaign=local_Express_England&utm_medium=organic",
    "description": "Tesco Express in Waterlooville. Professional supermarkets serving the local community....",
    "rating": 4.3,
    "review_count": 38,
    "featured": false
  },
  {
    "id": "google-ChIJmWMU9x",
    "name": "Morrisons",
    "slug": "morrisons",
    "category": "supermarkets",
    "area": "waterlooville",
    "postcode": "PO8 9FB",
    "address": "Lakesmere Rd",
    "lat": 50.908362,
    "lng": -1.003419,
    "phone": "023 9259 8346",
    "website": "https://my.morrisons.com/storefinder/354",
    "description": "Morrisons in Waterlooville. Professional supermarkets serving the local community....",
    "rating": 3.9,
    "review_count": 2627,
    "featured": true
  },
  {
    "id": "google-ChIJlyvfQm",
    "name": "Tesco Express",
    "slug": "tesco-express",
    "category": "supermarkets",
    "area": "waterlooville",
    "postcode": "PO7 8NS",
    "address": "Tesco",
    "lat": 50.8748984,
    "lng": -1.0187489,
    "phone": "0333 345 0943",
    "website": "https://www.tesco.com/store-locator/waterlooville/tesco?sc_cmp=ref*yg*stc*3123&utm_source=yext_google&utm_campaign=local_Express_England&utm_medium=organic",
    "description": "Tesco Express in Waterlooville. Professional supermarkets serving the local community....",
    "rating": 4.4,
    "review_count": 28,
    "featured": false
  },
  {
    "id": "google-ChIJrdD0Tm",
    "name": "Tesco Express",
    "slug": "tesco-express",
    "category": "supermarkets",
    "area": "waterlooville",
    "postcode": "PO7 8SE",
    "address": "The Westbrook Centre",
    "lat": 50.88729739999999,
    "lng": -1.0080446,
    "phone": "0333 345 2280",
    "website": "https://www.tesco.com/store-locator/waterlooville/the-westbrook-centre?sc_cmp=ref*yg*stc*6489&utm_source=yext_google&utm_campaign=local_Express_England&utm_medium=organic",
    "description": "Tesco Express in Waterlooville. Professional supermarkets serving the local community....",
    "rating": 4.6,
    "review_count": 28,
    "featured": false
  },
  {
    "id": "google-ChIJwZNBR_",
    "name": "Tesco Express",
    "slug": "tesco-express",
    "category": "supermarkets",
    "area": "waterlooville",
    "postcode": "PO8 9RJ",
    "address": "Tesco Express",
    "lat": 50.90454159999999,
    "lng": -1.0222046,
    "phone": "0333 345 2387",
    "website": "https://www.tesco.com/store-locator/waterlooville/tesco-express?sc_cmp=ref*yg*stc*6655&utm_source=yext_google&utm_campaign=local_Express_England&utm_medium=organic",
    "description": "Tesco Express in Waterlooville. Professional supermarkets serving the local community....",
    "rating": 4.1,
    "review_count": 41,
    "featured": false
  },
  {
    "id": "google-ChIJjRlBln",
    "name": "Day Lewis Pharmacy Waterlooville + Weight Loss Clinic",
    "slug": "day-lewis-pharmacy-waterlooville-weight-loss-clinic",
    "category": "pharmacies",
    "area": "waterlooville",
    "postcode": "PO7 7EX",
    "address": "49 London Rd",
    "lat": 50.8781775,
    "lng": -1.0341658,
    "phone": "023 9225 6124",
    "website": "https://www.daylewis.co.uk/pharmacy-page/waterlooville-hampshire/utm_source=google&utm_medium=organic&utm_campaign=yext?y_source=1_MzE0MzQyODMtNzE1LWxvY2F0aW9uLndlYnNpdGU%3D",
    "description": "Day Lewis Pharmacy Waterlooville + Weight Loss Clinic in Waterlooville. Professional pharmacies serving the local community....",
    "rating": 3.9,
    "review_count": 22,
    "featured": false
  },
  {
    "id": "google-ChIJpf6Ij3",
    "name": "Cowplain Pharmacy",
    "slug": "cowplain-pharmacy",
    "category": "pharmacies",
    "area": "waterlooville",
    "postcode": "PO8 8DL",
    "address": "26",
    "lat": 50.894568,
    "lng": -1.017687,
    "phone": "023 9225 5777",
    "website": "https://www.cowplainpharmacy.co.uk/",
    "description": "Cowplain Pharmacy in Waterlooville. Professional pharmacies serving the local community....",
    "rating": 4.1,
    "review_count": 72,
    "featured": false
  },
  {
    "id": "google-ChIJXxzWq5",
    "name": "Rowlands Pharmacy Milton Road",
    "slug": "rowlands-pharmacy-milton-road",
    "category": "pharmacies",
    "area": "waterlooville",
    "postcode": "PO8 8RE",
    "address": "149 Milton Rd",
    "lat": 50.8929575,
    "lng": -1.0325749,
    "phone": "023 9225 1732",
    "website": "https://www.rowlandspharmacy.co.uk/",
    "description": "Rowlands Pharmacy Milton Road in Waterlooville. Professional pharmacies serving the local community....",
    "rating": 3,
    "review_count": 62,
    "featured": false
  },
  {
    "id": "google-ChIJZVgNA3",
    "name": "ASDA Pharmacy",
    "slug": "asda-pharmacy",
    "category": "pharmacies",
    "area": "waterlooville",
    "postcode": "PO7 7XR",
    "address": "Portland Rd",
    "lat": 50.8793245,
    "lng": -1.0342914,
    "phone": "023 9224 8610",
    "website": "https://storelocator.asda.com/south-east/waterlooville/portland-road",
    "description": "ASDA Pharmacy in Waterlooville. Professional pharmacies serving the local community....",
    "rating": 2.4,
    "review_count": 39,
    "featured": false
  },
  {
    "id": "google-ChIJlyvfQm",
    "name": "Brook Pharmacy",
    "slug": "brook-pharmacy",
    "category": "pharmacies",
    "area": "waterlooville",
    "postcode": "PO7 8SE",
    "address": "The Westbrook Centre",
    "lat": 50.88734059999999,
    "lng": -1.0075846,
    "phone": "023 9226 3015",
    "website": "",
    "description": "Brook Pharmacy in Waterlooville. Professional pharmacies serving the local community....",
    "rating": 4.9,
    "review_count": 13,
    "featured": false
  },
  {
    "id": "google-ChIJx6LL2X",
    "name": "Boots",
    "slug": "boots",
    "category": "garden-centers",
    "area": "waterlooville",
    "postcode": "PO7 7DS",
    "address": "292-294 London Rd",
    "lat": 50.8795282,
    "lng": -1.0316444,
    "phone": "023 9226 2270",
    "website": "https://www.boots.com/stores/921-waterlooville-london-road-po7-7ds?utm_source=google&utm_medium=organic&utm_campaign=LPM_google_921",
    "description": "Boots in Waterlooville. Professional garden centers serving the local community....",
    "rating": 4,
    "review_count": 134,
    "featured": true
  },
  {
    "id": "google-ChIJPRzKu8",
    "name": "Boots Pharmacy",
    "slug": "boots-pharmacy",
    "category": "pharmacies",
    "area": "waterlooville",
    "postcode": "PO7 7DS",
    "address": "292-294 London Rd",
    "lat": 50.8794329,
    "lng": -1.0313499,
    "phone": "023 9226 2270",
    "website": "https://www.boots.com/stores/921-waterlooville-london-road-po7-7ds?utm_source=google&utm_medium=organic&utm_campaign=LPM_google_921P",
    "description": "Boots Pharmacy in Waterlooville. Professional pharmacies serving the local community....",
    "rating": 5,
    "review_count": 1,
    "featured": false
  },
  {
    "id": "google-ChIJ9VkFm7",
    "name": "Purbrook Pharmacy - Earwax Removal, Weight Loss Injection, Blood Test & Travel Clinic",
    "slug": "purbrook-pharmacy---earwax-removal-weight-loss-injection-blood-test-travel-clinic",
    "category": "pharmacies",
    "area": "waterlooville",
    "postcode": "PO7 5LJ",
    "address": "Purbrook Pharmacy",
    "lat": 50.86632849999999,
    "lng": -1.0454345,
    "phone": "023 9226 3284",
    "website": "https://medicineclinic.co.uk/purbrook-pharmacy",
    "description": "Purbrook Pharmacy - Earwax Removal, Weight Loss Injection, Blood Test & Travel Clinic in Waterlooville. Professional pharmacies serving the local comm...",
    "rating": 4.3,
    "review_count": 73,
    "featured": false
  },
  {
    "id": "google-ChIJj89L9x",
    "name": "Morrisons Pharmacy",
    "slug": "morrisons-pharmacy",
    "category": "pharmacies",
    "area": "waterlooville",
    "postcode": "PO8 9FB",
    "address": "Lakesmere Rd",
    "lat": 50.908362,
    "lng": -1.003419,
    "phone": "023 9257 1997",
    "website": "https://my.morrisons.com/storefinder/354",
    "description": "Morrisons Pharmacy in Waterlooville. Professional pharmacies serving the local community....",
    "rating": 3.5,
    "review_count": 22,
    "featured": false
  },
  {
    "id": "google-ChIJz2mLl3",
    "name": "Tuckers Pharmacy - Pharmacy First, Covid & Flu Vaccination Centre",
    "slug": "tuckers-pharmacy---pharmacy-first-covid-flu-vaccination-centre",
    "category": "pharmacies",
    "area": "waterlooville",
    "postcode": "PO8 8UJ",
    "address": "61 London Rd",
    "lat": 50.8944912,
    "lng": -1.0183134,
    "phone": "023 9226 2267",
    "website": "",
    "description": "Tuckers Pharmacy - Pharmacy First, Covid & Flu Vaccination Centre in Waterlooville. Professional pharmacies serving the local community....",
    "rating": 4,
    "review_count": 53,
    "featured": false
  },
  {
    "id": "google-ChIJwYK-8O",
    "name": "Allied Pharmacy - Lavender Road",
    "slug": "allied-pharmacy---lavender-road",
    "category": "pharmacies",
    "area": "waterlooville",
    "postcode": "PO7 8NS",
    "address": "2 Lavender Rd",
    "lat": 50.8750869,
    "lng": -1.0190526,
    "phone": "023 9223 0033",
    "website": "https://alliedpharmacies.com/pharmacy/allied-pharmacy-lavender-road",
    "description": "Allied Pharmacy - Lavender Road in Waterlooville. Professional pharmacies serving the local community....",
    "rating": 1,
    "review_count": 10,
    "featured": false
  },
  {
    "id": "google-ChIJz5oQcG",
    "name": "Rowlands Pharmacy Crookhorn Lane",
    "slug": "rowlands-pharmacy-crookhorn-lane",
    "category": "pharmacies",
    "area": "waterlooville",
    "postcode": "PO7 5XP",
    "address": "Crookhorn Ln",
    "lat": 50.8626845,
    "lng": -1.0274175,
    "phone": "023 9226 2185",
    "website": "https://www.rowlandspharmacy.co.uk/",
    "description": "Rowlands Pharmacy Crookhorn Lane in Waterlooville. Professional pharmacies serving the local community....",
    "rating": 2.7,
    "review_count": 29,
    "featured": false
  },
  {
    "id": "google-ChIJV-GXj8",
    "name": "Boots Pharmacy",
    "slug": "boots-pharmacy",
    "category": "pharmacies",
    "area": "waterlooville",
    "postcode": "PO7 6NU",
    "address": "Hambledon Rd",
    "lat": 50.9040709,
    "lng": -1.0653608,
    "phone": "023 9225 5937",
    "website": "https://www.boots.com/stores/5180-denmead-hambledon-po7-6nu?utm_source=google&utm_medium=organic&utm_campaign=LPM_google_5180",
    "description": "Boots Pharmacy in Waterlooville. Professional pharmacies serving the local community....",
    "rating": 3.8,
    "review_count": 45,
    "featured": false
  },
  {
    "id": "google-ChIJpf6Ij3",
    "name": "Park Lane Dental Clinic",
    "slug": "park-lane-dental-clinic",
    "category": "dentists",
    "area": "waterlooville",
    "postcode": "PO8 8DL",
    "address": "Health Centre",
    "lat": 50.8946789,
    "lng": -1.0175457,
    "phone": "023 9224 0701",
    "website": "https://www.colosseumdental.co.uk/practices/park-lane-dental-clinic",
    "description": "Park Lane Dental Clinic in Waterlooville. Professional dentists serving the local community....",
    "rating": 4.8,
    "review_count": 307,
    "featured": true
  },
  {
    "id": "google-ChIJM4m7oH",
    "name": "Dental Studio",
    "slug": "dental-studio",
    "category": "dentists",
    "area": "waterlooville",
    "postcode": "PO7 7TU",
    "address": "15 St George's Walk",
    "lat": 50.8803625,
    "lng": -1.0336037,
    "phone": "023 9225 4234",
    "website": "https://www.studiodental.co.uk/",
    "description": "Dental Studio in Waterlooville. Professional dentists serving the local community....",
    "rating": 4.9,
    "review_count": 208,
    "featured": true
  },
  {
    "id": "google-ChIJ7fo0m8",
    "name": "South Lane Dental",
    "slug": "south-lane-dental",
    "category": "dentists",
    "area": "waterlooville",
    "postcode": "PO8 0RB",
    "address": "3 South Ln",
    "lat": 50.9466864,
    "lng": -1.0079505,
    "phone": "023 9259 6444",
    "website": "https://www.southlanedental.co.uk/",
    "description": "South Lane Dental in Waterlooville. Professional dentists serving the local community....",
    "rating": 4.8,
    "review_count": 256,
    "featured": true
  },
  {
    "id": "google-ChIJIw_mlM",
    "name": "Denmead Dental",
    "slug": "denmead-dental",
    "category": "dentists",
    "area": "waterlooville",
    "postcode": "PO7 6QA",
    "address": "Denmead Dental Practice",
    "lat": 50.8996386,
    "lng": -1.058829,
    "phone": "023 9226 5444",
    "website": "http://www.denmeaddental.co.uk/",
    "description": "Denmead Dental in Waterlooville. Professional dentists serving the local community....",
    "rating": 4.8,
    "review_count": 54,
    "featured": false
  },
  {
    "id": "google-ChIJrzkg5X",
    "name": "Waterlooville Orthodontic Practice",
    "slug": "waterlooville-orthodontic-practice",
    "category": "dentists",
    "area": "waterlooville",
    "postcode": "PO7 7HY",
    "address": "10 Stakes Hill Rd",
    "lat": 50.8786435,
    "lng": -1.0315752,
    "phone": "023 9224 7390",
    "website": "https://www.southseaorthodontics.co.uk/?utm_source=googlemaps&utm_medium=organic&utm_campaign=primary",
    "description": "Waterlooville Orthodontic Practice in Waterlooville. Professional dentists serving the local community....",
    "rating": 4.4,
    "review_count": 65,
    "featured": false
  },
  {
    "id": "google-ChIJjRlBln",
    "name": "O Dee - The Dental Centre",
    "slug": "o-dee---the-dental-centre",
    "category": "dentists",
    "area": "waterlooville",
    "postcode": "PO8 8UJ",
    "address": "49 London Rd",
    "lat": 50.8940005,
    "lng": -1.0190652,
    "phone": "023 9226 2045",
    "website": "",
    "description": "O Dee - The Dental Centre in Waterlooville. Professional dentists serving the local community....",
    "rating": 5,
    "review_count": 1,
    "featured": false
  },
  {
    "id": "google-ChIJUcF9gn",
    "name": "Hair Addiction Salons Waterlooville",
    "slug": "hair-addiction-salons-waterlooville",
    "category": "hair-salons",
    "area": "waterlooville",
    "postcode": "PO7 7DT",
    "address": "5 The Boulevard",
    "lat": 50.880151,
    "lng": -1.030627,
    "phone": "023 9226 2855",
    "website": "http://www.hasalons.com/",
    "description": "Hair Addiction Salons Waterlooville in Waterlooville. Professional hair salons serving the local community....",
    "rating": 4.9,
    "review_count": 192,
    "featured": true
  },
  {
    "id": "google-ChIJuW8Txn",
    "name": "Hair Ott Waterlooville",
    "slug": "hair-ott-waterlooville",
    "category": "hair-salons",
    "area": "waterlooville",
    "postcode": "PO7 7HS",
    "address": "Unit 8",
    "lat": 50.8794963,
    "lng": -1.0303678,
    "phone": "023 9223 2360",
    "website": "http://www.hairott.co.uk/",
    "description": "Hair Ott Waterlooville in Waterlooville. Professional hair salons serving the local community....",
    "rating": 4.8,
    "review_count": 341,
    "featured": true
  },
  {
    "id": "google-ChIJWx9Ol8",
    "name": "Summers and Co Hair Boutique @ The Farmhouse Sanctuary",
    "slug": "summers-and-co-hair-boutique-the-farmhouse-sanctuary",
    "category": "hair-salons",
    "area": "waterlooville",
    "postcode": "PO8 0TA",
    "address": "214 Catherington Ln",
    "lat": 50.9194741,
    "lng": -1.0143186,
    "phone": "07791 224607",
    "website": "http://summersandcohair.co.uk/",
    "description": "Summers and Co Hair Boutique @ The Farmhouse Sanctuary in Waterlooville. Professional hair salons serving the local community....",
    "rating": 5,
    "review_count": 207,
    "featured": true
  },
  {
    "id": "google-ChIJh5bt86",
    "name": "Jenuine Styles Ltd",
    "slug": "jenuine-styles-ltd",
    "category": "hair-salons",
    "area": "waterlooville",
    "postcode": "PO8 8QP",
    "address": "156 Hart Plain Ave",
    "lat": 50.8979319,
    "lng": -1.0355118,
    "phone": "023 9225 9977",
    "website": "http://www.jenuinestyles.co.uk/",
    "description": "Jenuine Styles Ltd in Waterlooville. Professional hair salons serving the local community....",
    "rating": 4.8,
    "review_count": 117,
    "featured": true
  },
  {
    "id": "google-ChIJQbsxR3",
    "name": "Review Hair Waterlooville",
    "slug": "review-hair-waterlooville",
    "category": "hair-salons",
    "area": "waterlooville",
    "postcode": "PO7 7HG",
    "address": "256A London Rd",
    "lat": 50.8786125,
    "lng": -1.0327514,
    "phone": "023 9225 4164",
    "website": "http://www.review-hair.com/",
    "description": "Review Hair Waterlooville in Waterlooville. Professional hair salons serving the local community....",
    "rating": 4.7,
    "review_count": 66,
    "featured": false
  },
  {
    "id": "google-ChIJdZvW83",
    "name": "Inspire Hair and Beauty",
    "slug": "inspire-hair-and-beauty",
    "category": "hair-salons",
    "area": "waterlooville",
    "postcode": "PO8 8DH",
    "address": "2",
    "lat": 50.8936199,
    "lng": -1.0192345,
    "phone": "023 9224 1519",
    "website": "",
    "description": "Inspire Hair and Beauty in Waterlooville. Professional hair salons serving the local community....",
    "rating": 4.9,
    "review_count": 45,
    "featured": false
  },
  {
    "id": "google-ChIJweDXhd",
    "name": "Laura Skillen Salons",
    "slug": "laura-skillen-salons",
    "category": "hair-salons",
    "area": "waterlooville",
    "postcode": "PO7 7HB",
    "address": "224A London Rd",
    "lat": 50.8778781,
    "lng": -1.0340157,
    "phone": "023 9224 1212",
    "website": "http://www.lauraskillensalons.com/",
    "description": "Laura Skillen Salons in Waterlooville. Professional hair salons serving the local community....",
    "rating": 5,
    "review_count": 23,
    "featured": false
  },
  {
    "id": "google-ChIJZdd7Gi",
    "name": "Hair Retreat & Co",
    "slug": "hair-retreat-co",
    "category": "hair-salons",
    "area": "waterlooville",
    "postcode": "PO7 8SE",
    "address": "The Westbrook Centre",
    "lat": 50.8872982,
    "lng": -1.006618,
    "phone": "023 9307 2647",
    "website": "http://www.the-hair-retreat.uk/",
    "description": "Hair Retreat & Co in Waterlooville. Professional hair salons serving the local community....",
    "rating": 5,
    "review_count": 16,
    "featured": false
  },
  {
    "id": "google-ChIJ9YpDMH",
    "name": "Wonderful Hair Shop",
    "slug": "wonderful-hair-shop",
    "category": "hair-salons",
    "area": "waterlooville",
    "postcode": "PO7 7TU",
    "address": "5 St George's Walk",
    "lat": 50.8798397,
    "lng": -1.0330744,
    "phone": "023 9226 3092",
    "website": "http://www.wonderfulhairshop.com/",
    "description": "Wonderful Hair Shop in Waterlooville. Professional hair salons serving the local community....",
    "rating": 4.8,
    "review_count": 29,
    "featured": false
  },
  {
    "id": "google-ChIJP8JrGz",
    "name": "The Village Salon Hair & Beauty",
    "slug": "the-village-salon-hair-beauty",
    "category": "hair-salons",
    "area": "waterlooville",
    "postcode": "PO8 0DB",
    "address": "1 Havant Rd",
    "lat": 50.9135093,
    "lng": -0.9958682999999999,
    "phone": "023 9259 3204",
    "website": "http://www.thevillagesalonhairandbeauty.com/",
    "description": "The Village Salon Hair & Beauty in Waterlooville. Professional hair salons serving the local community....",
    "rating": 4.9,
    "review_count": 70,
    "featured": false
  },
  {
    "id": "google-ChIJ56oGsg",
    "name": "Salon One",
    "slug": "salon-one",
    "category": "hair-salons",
    "area": "waterlooville",
    "postcode": "PO7 8SE",
    "address": "1",
    "lat": 50.8872174,
    "lng": -1.00708,
    "phone": "023 9217 8022",
    "website": "http://www.salononeuk.com/",
    "description": "Salon One in Waterlooville. Professional hair salons serving the local community....",
    "rating": 4.9,
    "review_count": 78,
    "featured": false
  },
  {
    "id": "google-ChIJ8zMAYP",
    "name": "Vola Hair and Beauty",
    "slug": "vola-hair-and-beauty",
    "category": "hair-salons",
    "area": "waterlooville",
    "postcode": "PO7 5LJ",
    "address": "44 London Rd",
    "lat": 50.8674329,
    "lng": -1.0445269,
    "phone": "023 9226 9587",
    "website": "http://www.volahairandbeauty.co.uk/",
    "description": "Vola Hair and Beauty in Waterlooville. Professional hair salons serving the local community....",
    "rating": 4.9,
    "review_count": 38,
    "featured": false
  },
  {
    "id": "google-ChIJySP5iM",
    "name": "Sassy Hair, Denmead",
    "slug": "sassy-hair-denmead",
    "category": "hair-salons",
    "area": "waterlooville",
    "postcode": "PO7 6NU",
    "address": "Sassy Hair",
    "lat": 50.9039468,
    "lng": -1.0669221,
    "phone": "023 9225 5334",
    "website": "https://sassyhairdenmead.co.uk/",
    "description": "Sassy Hair, Denmead in Waterlooville. Professional hair salons serving the local community....",
    "rating": 5,
    "review_count": 84,
    "featured": false
  },
  {
    "id": "google-ChIJ8eEjUk",
    "name": "Stephen William Hair Cabin Studio",
    "slug": "stephen-william-hair-cabin-studio",
    "category": "hair-salons",
    "area": "waterlooville",
    "postcode": "PO8 9FF",
    "address": "2 Clements Grv",
    "lat": 50.90317599999999,
    "lng": -1.032749,
    "phone": "",
    "website": "https://stephenwilliamhair.com/",
    "description": "Stephen William Hair Cabin Studio in Waterlooville. Professional hair salons serving the local community....",
    "rating": 4.9,
    "review_count": 41,
    "featured": false
  },
  {
    "id": "google-ChIJ41PtnB",
    "name": "Cut n' Dry",
    "slug": "cut-n-dry",
    "category": "hair-salons",
    "area": "waterlooville",
    "postcode": "PO7 5LJ",
    "address": "16 London Rd",
    "lat": 50.8665331,
    "lng": -1.0451703,
    "phone": "023 9226 6139",
    "website": "https://cutndrypurbrook.co.uk/",
    "description": "Cut n' Dry in Waterlooville. Professional hair salons serving the local community....",
    "rating": 4.7,
    "review_count": 61,
    "featured": false
  },
  {
    "id": "google-ChIJUWKnOB",
    "name": "Studio H",
    "slug": "studio-h",
    "category": "hair-salons",
    "area": "waterlooville",
    "postcode": "PO8 0BZ",
    "address": "2b London Rd",
    "lat": 50.913702,
    "lng": -0.9955285,
    "phone": "07523 131982",
    "website": "http://www.hair-studioh.co.uk/",
    "description": "Studio H in Waterlooville. Professional hair salons serving the local community....",
    "rating": 5,
    "review_count": 534,
    "featured": true
  },
  {
    "id": "google-ChIJm5MiSH",
    "name": "Sugarlocks Hair",
    "slug": "sugarlocks-hair",
    "category": "hair-salons",
    "area": "waterlooville",
    "postcode": "PO7 7DU",
    "address": "316 London Rd",
    "lat": 50.88069309999999,
    "lng": -1.0302131,
    "phone": "023 9204 4004",
    "website": "",
    "description": "Sugarlocks Hair in Waterlooville. Professional hair salons serving the local community....",
    "rating": 4.8,
    "review_count": 6,
    "featured": false
  },
  {
    "id": "google-ChIJz48LlB",
    "name": "Belle De Vie Hair & Beauty Salon",
    "slug": "belle-de-vie-hair-beauty-salon",
    "category": "hair-salons",
    "area": "waterlooville",
    "postcode": "PO8 0JL",
    "address": "34 Drift Rd",
    "lat": 50.9352961,
    "lng": -0.9988908,
    "phone": "023 9259 3999",
    "website": "http://www.belle-de-vie.co.uk/",
    "description": "Belle De Vie Hair & Beauty Salon in Waterlooville. Professional hair salons serving the local community....",
    "rating": 4.8,
    "review_count": 105,
    "featured": true
  },
  {
    "id": "google-ChIJ3UmaJX",
    "name": "Vivaldi",
    "slug": "vivaldi",
    "category": "hair-salons",
    "area": "waterlooville",
    "postcode": "PO7 7EX",
    "address": "67 London Rd",
    "lat": 50.8783251,
    "lng": -1.0337339,
    "phone": "023 9225 2026",
    "website": "",
    "description": "Vivaldi in Waterlooville. Professional hair salons serving the local community....",
    "rating": 4.6,
    "review_count": 54,
    "featured": false
  },
  {
    "id": "google-ChIJc0lygJ",
    "name": "Horizon Waterlooville",
    "slug": "horizon-waterlooville",
    "category": "gyms",
    "area": "waterlooville",
    "postcode": "PO7 7UW",
    "address": "Waterberry Dr",
    "lat": 50.8871414,
    "lng": -1.0416978,
    "phone": "023 9224 5900",
    "website": "https://horizonlc.com/",
    "description": "Horizon Waterlooville in Waterlooville. Professional gyms serving the local community....",
    "rating": 4,
    "review_count": 648,
    "featured": true
  },
  {
    "id": "google-ChIJOUykgo",
    "name": "PureGym Waterlooville",
    "slug": "puregym-waterlooville",
    "category": "gyms",
    "area": "waterlooville",
    "postcode": "PO7 7HS",
    "address": "Unit 15 Dukes Walk Service Rd",
    "lat": 50.8797073,
    "lng": -1.029525,
    "phone": "",
    "website": "https://www.puregym.com/gyms/waterlooville/?utm_source=local&utm_campaign=local_search-waterlooville-&utm_medium=organic",
    "description": "PureGym Waterlooville in Waterlooville. Professional gyms serving the local community....",
    "rating": 4.2,
    "review_count": 164,
    "featured": true
  },
  {
    "id": "google-ChIJ1SNsEb",
    "name": "Unit 22 Fitness",
    "slug": "unit-22-fitness",
    "category": "gyms",
    "area": "waterlooville",
    "postcode": "PO7 7TH",
    "address": "Brambles Enterprise Centre",
    "lat": 50.8868711,
    "lng": -1.0448156,
    "phone": "07913 186463",
    "website": "https://www.crossfitbasepoint.com/",
    "description": "Unit 22 Fitness in Waterlooville. Professional gyms serving the local community....",
    "rating": 5,
    "review_count": 16,
    "featured": false
  },
  {
    "id": "google-ChIJpymxRn",
    "name": "Back To Fitness",
    "slug": "back-to-fitness",
    "category": "gyms",
    "area": "waterlooville",
    "postcode": "PO7 7HG",
    "address": "270A London Rd",
    "lat": 50.8784486,
    "lng": -1.0327989,
    "phone": "07767 792672",
    "website": "http://www.b-t-f.co.uk/",
    "description": "Back To Fitness in Waterlooville. Professional gyms serving the local community....",
    "rating": 5,
    "review_count": 12,
    "featured": false
  },
  {
    "id": "google-ChIJD1jYPZ",
    "name": "CrossFit Iron Duke",
    "slug": "crossfit-iron-duke",
    "category": "gyms",
    "area": "waterlooville",
    "postcode": "PO7 7XQ",
    "address": "34H Aston Rd",
    "lat": 50.8865382,
    "lng": -1.0365125,
    "phone": "023 9217 8810",
    "website": "http://www.crossfitironduke.com/",
    "description": "CrossFit Iron Duke in Waterlooville. Professional gyms serving the local community....",
    "rating": 5,
    "review_count": 57,
    "featured": false
  },
  {
    "id": "google-ChIJDbuLc4",
    "name": "CrossFit Basepoint",
    "slug": "crossfit-basepoint",
    "category": "gyms",
    "area": "waterlooville",
    "postcode": "PO7 7TH",
    "address": "Unit 22",
    "lat": 50.8868711,
    "lng": -1.0448156,
    "phone": "07913 186463",
    "website": "https://www.crossfitbasepoint.com/about",
    "description": "CrossFit Basepoint in Waterlooville. Professional gyms serving the local community....",
    "rating": 5,
    "review_count": 16,
    "featured": false
  },
  {
    "id": "google-ChIJy7kF34",
    "name": "SKAN Heating Ltd – Boiler & Heating Engineers",
    "slug": "skan-heating-ltd-boiler-heating-engineers",
    "category": "plumbers",
    "area": "waterlooville",
    "postcode": "PO7 5TF",
    "address": "Hampshire",
    "lat": 50.8933209,
    "lng": -1.0187343,
    "phone": "07732 234231",
    "website": "https://www.skanheating.co.uk/",
    "description": "SKAN Heating Ltd – Boiler & Heating Engineers in Waterlooville. Professional plumbing and heating services serving the local community....",
    "rating": 5,
    "review_count": 176,
    "featured": true
  },
  {
    "id": "google-ChIJYVx2AH",
    "name": "HW Heating",
    "slug": "hw-heating",
    "category": "plumbers",
    "area": "waterlooville",
    "postcode": "PO7 8RH",
    "address": "17 Bracken Heath",
    "lat": 50.88697639999999,
    "lng": -1.0073232,
    "phone": "07979 148856",
    "website": "https://www.facebook.com/hwheating.co.uk",
    "description": "HW Heating in Waterlooville. Professional plumbers serving the local community....",
    "rating": 5,
    "review_count": 22,
    "featured": false
  },
  {
    "id": "google-ChIJ91YZVW",
    "name": "Kingston Plumbing & Heating",
    "slug": "kingston-plumbing-heating",
    "category": "plumbers",
    "area": "waterlooville",
    "postcode": "PO7 5PJ",
    "address": "Purbrook",
    "lat": 50.8643217,
    "lng": -1.0338515,
    "phone": "07950 913631",
    "website": "http://www.kingstonph.co.uk/",
    "description": "Kingston Plumbing & Heating in Waterlooville. Professional plumbers serving the local community....",
    "rating": 5,
    "review_count": 35,
    "featured": false
  },
  {
    "id": "google-ChIJGwHp2Y",
    "name": "Panda Gas Services",
    "slug": "panda-gas-services",
    "category": "plumbers",
    "area": "waterlooville",
    "postcode": "PO8 8UT",
    "address": "67 King's Rd",
    "lat": 50.8953846,
    "lng": -1.0253901,
    "phone": "07962 426606",
    "website": "http://www.pandaplumbing.co.uk/",
    "description": "Panda Gas Services in Waterlooville. Professional plumbing and heating services serving the local community....",
    "rating": 5,
    "review_count": 81,
    "featured": false
  },
  {
    "id": "google-ChIJK0qNoL",
    "name": "Tillett Plumbing & Heating Ltd",
    "slug": "tillett-plumbing-heating-ltd",
    "category": "plumbers",
    "area": "waterlooville",
    "postcode": "PO8 0DY",
    "address": "18 Juniper Rd",
    "lat": 50.9234069,
    "lng": -0.9987154,
    "phone": "023 9309 0126",
    "website": "https://www.tillettplumbingandheating.co.uk/",
    "description": "Tillett Plumbing & Heating Ltd in Waterlooville. Professional plumbing and heating services serving the local community....",
    "rating": 4.8,
    "review_count": 22,
    "featured": false
  },
  {
    "id": "google-ChIJq6oWi8",
    "name": "H G Plumbing and Heating Services",
    "slug": "h-g-plumbing-and-heating-services",
    "category": "plumbers",
    "area": "waterlooville",
    "postcode": "PO7 6GH",
    "address": "24 Carpenters Way",
    "lat": 50.9046797,
    "lng": -1.0617444,
    "phone": "07928 967548",
    "website": "http://hgplumbing.co.uk/",
    "description": "H G Plumbing and Heating Services in Waterlooville. Professional plumbers serving the local community....",
    "rating": 5,
    "review_count": 15,
    "featured": false
  },
  {
    "id": "google-ChIJn7Z6_o",
    "name": "Horndean Plumbing",
    "slug": "horndean-plumbing",
    "category": "plumbers",
    "area": "waterlooville",
    "postcode": "PO8 8RX",
    "address": "48 Hart Plain Ave",
    "lat": 50.893112,
    "lng": -1.025954,
    "phone": "023 9261 7683",
    "website": "http://www.horndeanplumbing.co.uk/",
    "description": "Horndean Plumbing in Waterlooville. Professional plumbing and heating services serving the local community....",
    "rating": 4.9,
    "review_count": 21,
    "featured": false
  },
  {
    "id": "google-ChIJZ6zEDO",
    "name": "LeakFix",
    "slug": "leakfix",
    "category": "plumbers",
    "area": "waterlooville",
    "postcode": "PO7 6BU",
    "address": "133 Sunnymead Dr",
    "lat": 50.8926197,
    "lng": -1.0349388,
    "phone": "023 9379 0039",
    "website": "http://www.leakfixwaterloovilleemergencyplumber.co.uk/",
    "description": "LeakFix in Waterlooville. Professional plumbers serving the local community....",
    "rating": 3.8,
    "review_count": 4,
    "featured": false
  },
  {
    "id": "google-ChIJZctpXc",
    "name": "Drainage Waterlooville - Blocked Drains",
    "slug": "drainage-waterlooville---blocked-drains",
    "category": "plumbers",
    "area": "waterlooville",
    "postcode": "PO7 7EH",
    "address": "2 St George's Walk",
    "lat": 50.8796583,
    "lng": -1.0322763,
    "phone": "023 9360 1372",
    "website": "http://drainage-south-coast.co.uk/waterlooville",
    "description": "Drainage Waterlooville - Blocked Drains in Waterlooville. Professional plumbers serving the local community....",
    "rating": 5,
    "review_count": 3,
    "featured": false
  },
  {
    "id": "google-ChIJJ4pXr7",
    "name": "Gas-Fix",
    "slug": "gas-fix",
    "category": "plumbers",
    "area": "waterlooville",
    "postcode": "PO8 0QB",
    "address": "Unit 2",
    "lat": 50.9632806,
    "lng": -1.0058101,
    "phone": "023 9299 0114",
    "website": "http://www.gas-fix.com/",
    "description": "Gas-Fix in Waterlooville. Professional plumbing and heating services serving the local community....",
    "rating": 5,
    "review_count": 426,
    "featured": true
  },
  {
    "id": "google-ChIJ750x0N",
    "name": "Wave Plumbing",
    "slug": "wave-plumbing",
    "category": "plumbers",
    "area": "waterlooville",
    "postcode": "PO7 5TF",
    "address": "107 Corbett Rd",
    "lat": 50.8725876,
    "lng": -1.0413484,
    "phone": "0800 949 4800",
    "website": "http://www.waveplumbing.co.uk/",
    "description": "Wave Plumbing in Waterlooville. Professional plumbers serving the local community....",
    "rating": 5,
    "review_count": 7,
    "featured": false
  },
  {
    "id": "google-ChIJkSQyUu",
    "name": "South East Drainage Services Ltd",
    "slug": "south-east-drainage-services-ltd",
    "category": "plumbers",
    "area": "waterlooville",
    "postcode": "PO7 6AG",
    "address": "99 Milton Rd",
    "lat": 50.8905316,
    "lng": -1.0335242,
    "phone": "01243 684275",
    "website": "https://www.southeastdrainage.co.uk/",
    "description": "South East Drainage Services Ltd in Waterlooville. Professional plumbers serving the local community....",
    "rating": 4.9,
    "review_count": 17,
    "featured": false
  },
  {
    "id": "google-ChIJbxElkG",
    "name": "Drainage Penge - Blocked Drains",
    "slug": "drainage-penge---blocked-drains",
    "category": "plumbers",
    "area": "waterlooville",
    "postcode": "PO7 8RS",
    "address": "15 Meadowsweet",
    "lat": 50.889967,
    "lng": -1.0056965,
    "phone": "0800 920 2342",
    "website": "http://drainage-south-london.co.uk/penge",
    "description": "Drainage Penge - Blocked Drains in Waterlooville. Professional plumbers serving the local community....",
    "rating": 5,
    "review_count": 3,
    "featured": false
  },
  {
    "id": "google-ChIJUQZUzk",
    "name": "K6 GAS LTD",
    "slug": "k6-gas-ltd",
    "category": "plumbers",
    "area": "waterlooville",
    "postcode": "PO7 5BQ",
    "address": "23 Lily Ave",
    "lat": 50.8577062,
    "lng": -1.0521239,
    "phone": "07511 017089",
    "website": "http://www.k6gas.co.uk/",
    "description": "K6 GAS LTD in Waterlooville. Professional plumbers serving the local community....",
    "rating": 5,
    "review_count": 2,
    "featured": false
  },
  {
    "id": "google-ChIJeTfEMG",
    "name": "pipePRO Plumbing Heating Gas ltd",
    "slug": "pipepro-plumbing-heating-gas-ltd",
    "category": "plumbers",
    "area": "waterlooville",
    "postcode": "PO8 0ZT",
    "address": "4 Twyford rise",
    "lat": 50.9451669,
    "lng": -1.0088425,
    "phone": "07717 207572",
    "website": "https://www.facebook.com/share/1Db1DaPDtJ/?mibextid=LQQJ4d",
    "description": "pipePRO Plumbing Heating Gas ltd in Waterlooville. Professional plumbers serving the local community....",
    "rating": 5,
    "review_count": 9,
    "featured": false
  },
  {
    "id": "google-ChIJK5SBVu",
    "name": "MJA Electrical",
    "slug": "mja-electrical",
    "category": "electricians",
    "area": "waterlooville",
    "postcode": "PO8 9BP",
    "address": "65 Hazleton Way",
    "lat": 50.8998488,
    "lng": -1.0081309,
    "phone": "01243 389566",
    "website": "http://www.mja-electrical.co.uk/",
    "description": "MJA Electrical in Waterlooville. Professional electricians serving the local community....",
    "rating": 5,
    "review_count": 28,
    "featured": false
  },
  {
    "id": "google-ChIJ73KCtH",
    "name": "XI Electrical Limited",
    "slug": "xi-electrical-limited",
    "category": "electricians",
    "area": "waterlooville",
    "postcode": "PO8 0BT",
    "address": "Unit 29",
    "lat": 50.9182706,
    "lng": -0.9993309,
    "phone": "07889 400281",
    "website": "https://xielectrical.com/",
    "description": "XI Electrical Limited in Waterlooville. Professional electricians serving the local community....",
    "rating": 5,
    "review_count": 8,
    "featured": false
  },
  {
    "id": "google-ChIJoQVPJs",
    "name": "Hatch Electrical",
    "slug": "hatch-electrical",
    "category": "electricians",
    "area": "waterlooville",
    "postcode": "PO8 9AT",
    "address": "11 Galaxie Rd",
    "lat": 50.89890339999999,
    "lng": -1.012805,
    "phone": "07983 654543",
    "website": "",
    "description": "Hatch Electrical in Waterlooville. Professional electricians serving the local community....",
    "rating": 5,
    "review_count": 12,
    "featured": false
  },
  {
    "id": "google-ChIJJRCXtB",
    "name": "Prime Electrical Services South Ltd",
    "slug": "prime-electrical-services-south-ltd",
    "category": "electricians",
    "area": "waterlooville",
    "postcode": "PO8 0BT",
    "address": "Waterlooville PO8 0BT",
    "lat": 50.91846289999999,
    "lng": -0.9993631,
    "phone": "023 9240 1962",
    "website": "http://www.prime-electrical.net/",
    "description": "Prime Electrical Services South Ltd in Waterlooville. Professional electricians serving the local community....",
    "rating": 5,
    "review_count": 1,
    "featured": false
  },
  {
    "id": "google-ChIJFfj7L3",
    "name": "Eric Jacksons Electrical Ltd",
    "slug": "eric-jacksons-electrical-ltd",
    "category": "electricians",
    "area": "waterlooville",
    "postcode": "PO7 7HB",
    "address": "236 London Rd",
    "lat": 50.87813999999999,
    "lng": -1.033643,
    "phone": "023 9226 2020",
    "website": "http://www.ericjacksons.co.uk/",
    "description": "Eric Jacksons Electrical Ltd in Waterlooville. Professional electricians serving the local community....",
    "rating": 4.8,
    "review_count": 24,
    "featured": false
  },
  {
    "id": "google-ChIJKZxUqV",
    "name": "E-volve Construction Group Ltd",
    "slug": "e-volve-construction-group-ltd",
    "category": "electricians",
    "area": "waterlooville",
    "postcode": "PO7 7DU",
    "address": "314 London Rd",
    "lat": 50.8807413,
    "lng": -1.0301713,
    "phone": "023 9309 2493",
    "website": "https://www.e-volvegroup.co.uk/",
    "description": "E-volve Construction Group Ltd in Waterlooville. Professional electricians serving the local community....",
    "rating": 5,
    "review_count": 14,
    "featured": false
  },
  {
    "id": "google-ChIJeWB7dX",
    "name": "Conlex Electrical Services Ltd",
    "slug": "conlex-electrical-services-ltd",
    "category": "electricians",
    "area": "waterlooville",
    "postcode": "PO7 8SU",
    "address": "36 Tor Cl",
    "lat": 50.8618004,
    "lng": -1.0247082,
    "phone": "07495 515157",
    "website": "",
    "description": "Conlex Electrical Services Ltd in Waterlooville. Professional electricians serving the local community....",
    "rating": 5,
    "review_count": 15,
    "featured": false
  },
  {
    "id": "google-ChIJHdq9fJ",
    "name": "Bobby Sparks Electrical Services",
    "slug": "bobby-sparks-electrical-services",
    "category": "electricians",
    "area": "waterlooville",
    "postcode": "PO7 6EH",
    "address": "11 Ashling Park Rd",
    "lat": 50.9027573,
    "lng": -1.0672518,
    "phone": "07900 990557",
    "website": "https://ukmapslocation.org/business/bobby-sparks-electrical-services-i9jio4",
    "description": "Bobby Sparks Electrical Services in Waterlooville. Professional electricians serving the local community....",
    "rating": 5,
    "review_count": 30,
    "featured": false
  },
  {
    "id": "google-ChIJRXdSSk",
    "name": "Apex E C",
    "slug": "apex-e-c",
    "category": "electricians",
    "area": "waterlooville",
    "postcode": "PO7 7YH",
    "address": "Waterberry Dr",
    "lat": 50.88557549999999,
    "lng": -1.0423524,
    "phone": "07872 332528",
    "website": "http://apex-ec.co.uk/",
    "description": "Apex E C in Waterlooville. Professional electricians serving the local community....",
    "rating": 5,
    "review_count": 57,
    "featured": false
  },
  {
    "id": "google-ChIJu4rcSI",
    "name": "Kevlar Electrical LTD",
    "slug": "kevlar-electrical-ltd",
    "category": "electricians",
    "area": "waterlooville",
    "postcode": "PO8 9AT",
    "address": "51 Galaxie Rd",
    "lat": 50.8993841,
    "lng": -1.0130362,
    "phone": "07875 634434",
    "website": "http://www.kevlarelectrical.com/",
    "description": "Kevlar Electrical LTD in Waterlooville. Professional electricians serving the local community....",
    "rating": 5,
    "review_count": 18,
    "featured": false
  },
  {
    "id": "google-ChIJWZ1VMW",
    "name": "PRC Electrical Services Ltd",
    "slug": "prc-electrical-services-ltd",
    "category": "electricians",
    "area": "waterlooville",
    "postcode": "PO7 8QZ",
    "address": "30 Damask Gardens",
    "lat": 50.8865139,
    "lng": -1.0079931,
    "phone": "023 9278 5229",
    "website": "https://prcelectricalservicesltd.co.uk/",
    "description": "PRC Electrical Services Ltd in Waterlooville. Professional electricians serving the local community....",
    "rating": 4.6,
    "review_count": 8,
    "featured": false
  },
  {
    "id": "google-ChIJ02dGmS",
    "name": "DW Electrical Solutions",
    "slug": "dw-electrical-solutions",
    "category": "electricians",
    "area": "waterlooville",
    "postcode": "PO7 5JW",
    "address": "39 Privett Rd",
    "lat": 50.860797,
    "lng": -1.0346949,
    "phone": "07504 845014",
    "website": "https://dwelectricals.co.uk/",
    "description": "DW Electrical Solutions in Waterlooville. Professional electricians serving the local community....",
    "rating": 5,
    "review_count": 20,
    "featured": false
  },
  {
    "id": "google-ChIJlzWsjU",
    "name": "AJW Electrical",
    "slug": "ajw-electrical",
    "category": "electricians",
    "area": "waterlooville",
    "postcode": "PO7 5RB",
    "address": "8 Widley Gardens",
    "lat": 50.8597548,
    "lng": -1.0376973,
    "phone": "023 9236 6119",
    "website": "http://www.ajw-electrical.co.uk/",
    "description": "AJW Electrical in Waterlooville. Professional electricians serving the local community....",
    "rating": 5,
    "review_count": 8,
    "featured": false
  },
  {
    "id": "google-ChIJW9iM5H",
    "name": "Clinton Electrics Ltd",
    "slug": "clinton-electrics-ltd",
    "category": "electricians",
    "area": "waterlooville",
    "postcode": "PO7 7NT",
    "address": "14 Hulbert Rd",
    "lat": 50.8804655,
    "lng": -1.0276525,
    "phone": "023 9279 9001",
    "website": "http://www.clinton-electrics.co.uk/",
    "description": "Clinton Electrics Ltd in Waterlooville. Professional electricians serving the local community....",
    "rating": 5,
    "review_count": 4,
    "featured": false
  },
  {
    "id": "google-ChIJ2zN9B3",
    "name": "Cardinal Electrical",
    "slug": "cardinal-electrical",
    "category": "electricians",
    "area": "waterlooville",
    "postcode": "PO7 7YH",
    "address": "3",
    "lat": 50.885709,
    "lng": -1.0419211,
    "phone": "023 9355 2693",
    "website": "http://www.cardinalelectrical.co.uk/",
    "description": "Cardinal Electrical in Waterlooville. Professional electricians serving the local community....",
    "rating": 0,
    "review_count": 0,
    "featured": false
  },
  {
    "id": "google-ChIJ5x9idn",
    "name": "Sean Mason Electrical",
    "slug": "sean-mason-electrical",
    "category": "electricians",
    "area": "waterlooville",
    "postcode": "PO7 7NG",
    "address": "3 Lancaster Way",
    "lat": 50.8754488,
    "lng": -1.0261769,
    "phone": "023 9226 9871",
    "website": "",
    "description": "Sean Mason Electrical in Waterlooville. Professional electricians serving the local community....",
    "rating": 5,
    "review_count": 4,
    "featured": false
  },
  {
    "id": "google-ChIJQ4HHkG",
    "name": "D.N Motor Services mobile mechanic",
    "slug": "dn-motor-services-mobile-mechanic",
    "category": "car-mechanics",
    "area": "waterlooville",
    "postcode": "PO7 7TU",
    "address": "St Georges Walk",
    "lat": 50.8801214,
    "lng": -1.0332744,
    "phone": "07462 495130",
    "website": "http://www.dnmotorservices.co.uk/",
    "description": "D.N Motor Services mobile mechanic in Waterlooville. Professional car mechanics serving the local community....",
    "rating": 4.8,
    "review_count": 141,
    "featured": true
  },
  {
    "id": "google-ChIJ_fHg5J",
    "name": "Absolute Autos Ltd",
    "slug": "absolute-autos-ltd",
    "category": "car-mechanics",
    "area": "waterlooville",
    "postcode": "PO7 7XG",
    "address": "13-14 Aston Rd",
    "lat": 50.88550009999999,
    "lng": -1.034306,
    "phone": "023 9200 5280",
    "website": "http://www.motwaterlooville.com/",
    "description": "Absolute Autos Ltd in Waterlooville. Professional car mechanics serving the local community....",
    "rating": 4.7,
    "review_count": 232,
    "featured": true
  },
  {
    "id": "google-ChIJcYSxs5",
    "name": "KF Auto Repairs Waterlooville",
    "slug": "kf-auto-repairs-waterlooville",
    "category": "car-mechanics",
    "area": "waterlooville",
    "postcode": "PO7 7RF",
    "address": "Unit 7",
    "lat": 50.8865794,
    "lng": -1.0348515,
    "phone": "07766 731599",
    "website": "http://www.kfautoswaterlooville.co.uk/",
    "description": "KF Auto Repairs Waterlooville in Waterlooville. Professional car mechanics serving the local community....",
    "rating": 4.9,
    "review_count": 39,
    "featured": false
  },
  {
    "id": "google-ChIJ4RvAHn",
    "name": "RAD Auto Services ltd",
    "slug": "rad-auto-services-ltd",
    "category": "car-mechanics",
    "area": "waterlooville",
    "postcode": "PO7 7UP",
    "address": "3",
    "lat": 50.8815827,
    "lng": -1.0316229,
    "phone": "023 9226 8006",
    "website": "http://www.radservices.co.uk/",
    "description": "RAD Auto Services ltd in Waterlooville. Professional car mechanics serving the local community....",
    "rating": 4.7,
    "review_count": 74,
    "featured": false
  },
  {
    "id": "google-ChIJz91DxJ",
    "name": "Clarks Auto Service",
    "slug": "clarks-auto-service",
    "category": "car-mechanics",
    "area": "waterlooville",
    "postcode": "PO7 7UP",
    "address": "17a Arnside Rd",
    "lat": 50.882476,
    "lng": -1.0317765,
    "phone": "023 9225 2857",
    "website": "http://www.clarksautoservice.co.uk/",
    "description": "Clarks Auto Service in Waterlooville. Professional car mechanics serving the local community....",
    "rating": 4.6,
    "review_count": 79,
    "featured": false
  },
  {
    "id": "google-ChIJl5lMT5",
    "name": "SpeedyMech Garage Services",
    "slug": "speedymech-garage-services",
    "category": "car-mechanics",
    "area": "waterlooville",
    "postcode": "PO7 7XF",
    "address": "35 Aston Rd",
    "lat": 50.8862294,
    "lng": -1.0362402,
    "phone": "",
    "website": "https://www.speedymechgarageservices.co.uk/",
    "description": "SpeedyMech Garage Services in Waterlooville. Professional car mechanics serving the local community....",
    "rating": 4.7,
    "review_count": 73,
    "featured": false
  },
  {
    "id": "google-ChIJy6BXS5",
    "name": "Motor Vehicle Maintenance",
    "slug": "motor-vehicle-maintenance",
    "category": "electricians",
    "area": "waterlooville",
    "postcode": "PO7 7XJ",
    "address": "25 Aston Rd",
    "lat": 50.8851583,
    "lng": -1.0363195,
    "phone": "023 9225 2559",
    "website": "http://mvmmotor.org/",
    "description": "Motor Vehicle Maintenance in Waterlooville. Professional electricians serving the local community....",
    "rating": 4.3,
    "review_count": 60,
    "featured": false
  },
  {
    "id": "google-ChIJSSVx9M",
    "name": "TWS Automotive",
    "slug": "tws-automotive",
    "category": "car-mechanics",
    "area": "waterlooville",
    "postcode": "PO8 0AU",
    "address": "2E Finchdean Ironworks",
    "lat": 50.9097709,
    "lng": -0.950962,
    "phone": "023 9241 3002",
    "website": "https://twsfinchdean.wixsite.com/tws-automotive",
    "description": "TWS Automotive in Waterlooville. Professional car mechanics serving the local community....",
    "rating": 4.8,
    "review_count": 21,
    "featured": false
  },
  {
    "id": "google-ChIJEWge4x",
    "name": "Universal Vehicle Services",
    "slug": "universal-vehicle-services",
    "category": "car-mechanics",
    "area": "waterlooville",
    "postcode": "PO8 9JX",
    "address": "Unit 3-5",
    "lat": 50.91429000000001,
    "lng": -0.998167,
    "phone": "023 9257 1100",
    "website": "http://www.uvs-horndean.co.uk/",
    "description": "Universal Vehicle Services in Waterlooville. Professional car mechanics serving the local community....",
    "rating": 4.7,
    "review_count": 35,
    "featured": false
  },
  {
    "id": "google-ChIJRzmaRh",
    "name": "Prestige Car Service",
    "slug": "prestige-car-service",
    "category": "car-mechanics",
    "area": "waterlooville",
    "postcode": "PO8 0BJ",
    "address": "113A London Rd. (off Down Road)",
    "lat": 50.9202823,
    "lng": -0.9996415000000001,
    "phone": "023 9257 0123",
    "website": "http://www.prestigecarservice.co.uk/",
    "description": "Prestige Car Service in Waterlooville. Professional car mechanics serving the local community....",
    "rating": 4.9,
    "review_count": 203,
    "featured": true
  },
  {
    "id": "google-ChIJ9XEyDD",
    "name": "R.M.S Vehicle Servicing & Repair",
    "slug": "rms-vehicle-servicing-repair",
    "category": "car-mechanics",
    "area": "waterlooville",
    "postcode": "PO7 8DF",
    "address": "Coltsfoot Dr",
    "lat": 50.8707106,
    "lng": -1.0212846,
    "phone": "07725 008225",
    "website": "http://www.rmsrepairs.com/",
    "description": "R.M.S Vehicle Servicing & Repair in Waterlooville. Professional car mechanics serving the local community....",
    "rating": 4.9,
    "review_count": 32,
    "featured": false
  },
  {
    "id": "google-ChIJoyYbSR",
    "name": "AlcoMoto Limited",
    "slug": "alcomoto-limited",
    "category": "car-mechanics",
    "area": "waterlooville",
    "postcode": "PO7 7XG",
    "address": "41 Aston Rd",
    "lat": 50.8855075,
    "lng": -1.0352993,
    "phone": "023 9298 2582",
    "website": "http://www.alcomoto.co.uk/",
    "description": "AlcoMoto Limited in Waterlooville. Professional car mechanics serving the local community....",
    "rating": 4.9,
    "review_count": 169,
    "featured": true
  },
  {
    "id": "google-ChIJ5978lv",
    "name": "Auto-Barn Motor Services Ltd",
    "slug": "auto-barn-motor-services-ltd",
    "category": "car-mechanics",
    "area": "waterlooville",
    "postcode": "PO8 9RX",
    "address": "The Barn",
    "lat": 50.914281,
    "lng": -1.0291404,
    "phone": "023 9259 2010",
    "website": "http://www.autobarnmotorservices.co.uk/",
    "description": "Auto-Barn Motor Services Ltd in Waterlooville. Professional car mechanics serving the local community....",
    "rating": 4.9,
    "review_count": 171,
    "featured": true
  },
  {
    "id": "google-ChIJm5VQuy",
    "name": "Speedy Spanners",
    "slug": "speedy-spanners",
    "category": "car-mechanics",
    "area": "waterlooville",
    "postcode": "PO8 0BN",
    "address": "25-27 London Rd",
    "lat": 50.9150161,
    "lng": -0.9970325,
    "phone": "023 9259 6822",
    "website": "http://www.speedyspanners.co.uk/",
    "description": "Speedy Spanners in Waterlooville. Professional car mechanics serving the local community....",
    "rating": 4.8,
    "review_count": 135,
    "featured": true
  },
  {
    "id": "google-ChIJm2PyiZ",
    "name": "Perkins Automotive Accident Repair Centre",
    "slug": "perkins-automotive-accident-repair-centre",
    "category": "car-mechanics",
    "area": "waterlooville",
    "postcode": "PO7 7XU",
    "address": "UNIT 3 PIPERSWOOD",
    "lat": 50.8842843,
    "lng": -1.0435008,
    "phone": "023 9298 4224",
    "website": "https://perkinsauto.co.uk/",
    "description": "Perkins Automotive Accident Repair Centre in Waterlooville. Professional car mechanics serving the local community....",
    "rating": 4.9,
    "review_count": 110,
    "featured": true
  },
  {
    "id": "google-ChIJ3TbbYA",
    "name": "Wilkinson Garage Services",
    "slug": "wilkinson-garage-services",
    "category": "car-mechanics",
    "area": "waterlooville",
    "postcode": "PO8 9SU",
    "address": "Unit 2 Teagus Farm",
    "lat": 50.9163273,
    "lng": -1.0168524,
    "phone": "023 9259 9906",
    "website": "http://wilkinson-services.jany.io/",
    "description": "Wilkinson Garage Services in Waterlooville. Professional car mechanics serving the local community....",
    "rating": 4.9,
    "review_count": 111,
    "featured": true
  },
  {
    "id": "google-ChIJSwb8lv",
    "name": "J G Autos",
    "slug": "j-g-autos",
    "category": "car-mechanics",
    "area": "waterlooville",
    "postcode": "PO8 9RX",
    "address": "251 Lovedean Ln",
    "lat": 50.9139941,
    "lng": -1.0286741,
    "phone": "023 9259 1818",
    "website": "https://www.jgautos.net/",
    "description": "J G Autos in Waterlooville. Professional car mechanics serving the local community....",
    "rating": 5,
    "review_count": 35,
    "featured": false
  },
  {
    "id": "google-ChIJ53CJoA",
    "name": "RCE Mot And Service Centre",
    "slug": "rce-mot-and-service-centre",
    "category": "car-mechanics",
    "area": "waterlooville",
    "postcode": "PO8 9RX",
    "address": "259 Lovedean Ln",
    "lat": 50.9143498,
    "lng": -1.0291517,
    "phone": "07919 513937",
    "website": "",
    "description": "RCE Mot And Service Centre in Waterlooville. Professional car mechanics serving the local community....",
    "rating": 5,
    "review_count": 28,
    "featured": false
  },
  {
    "id": "google-ChIJ5wAb8Y",
    "name": "Lawson J F & Sons",
    "slug": "lawson-j-f-sons",
    "category": "car-mechanics",
    "area": "waterlooville",
    "postcode": "PO8 8RX",
    "address": "41 Hart Plain Ave",
    "lat": 50.8927188,
    "lng": -1.0272761,
    "phone": "023 9226 4247",
    "website": "https://busini.org/details/k-g-motors-ChIJmx2",
    "description": "Lawson J F & Sons in Waterlooville. Professional car mechanics serving the local community....",
    "rating": 4.9,
    "review_count": 29,
    "featured": false
  },
  {
    "id": "google-ChIJbfBI8n",
    "name": "Bosch Car Service - Collison Motoring Services",
    "slug": "bosch-car-service---collison-motoring-services",
    "category": "car-mechanics",
    "area": "waterlooville",
    "postcode": "PO8 8XJ",
    "address": "127",
    "lat": 50.897471,
    "lng": -1.0172597,
    "phone": "023 9225 9311",
    "website": "https://www.collisonmotoringservices.co.uk/?utm_source=gmb&utm_medium=organic",
    "description": "Bosch Car Service - Collison Motoring Services in Waterlooville. Professional car mechanics serving the local community....",
    "rating": 4.5,
    "review_count": 172,
    "featured": true
  },
  {
    "id": "google-ChIJv9QaO3",
    "name": "Harbour Veterinary Group - Waterlooville",
    "slug": "harbour-veterinary-group---waterlooville",
    "category": "vets",
    "area": "waterlooville",
    "postcode": "PO7 7LB",
    "address": "54A Stakes Hill Rd",
    "lat": 50.87718899999999,
    "lng": -1.0299396,
    "phone": "023 9226 2346",
    "website": "https://www.vetcollection.co.uk/south-east/harbour-veterinary-group-waterlooville/?utm_source=google&utm_medium=Yext",
    "description": "Harbour Veterinary Group - Waterlooville in Waterlooville. Professional vets serving the local community....",
    "rating": 4.6,
    "review_count": 183,
    "featured": true
  },
  {
    "id": "google-ChIJyVcuGD",
    "name": "Purbrook Veterinary Practice Limited",
    "slug": "purbrook-veterinary-practice-limited",
    "category": "vets",
    "area": "waterlooville",
    "postcode": "PO7 5AB",
    "address": "82 London Rd",
    "lat": 50.8600748,
    "lng": -1.0480327,
    "phone": "023 9237 1755",
    "website": "http://purbrookvets.co.uk/",
    "description": "Purbrook Veterinary Practice Limited in Waterlooville. Professional vets serving the local community....",
    "rating": 4.7,
    "review_count": 214,
    "featured": true
  },
  {
    "id": "google-ChIJGy3uOH",
    "name": "Vets4Pets - Waterlooville",
    "slug": "vets4pets---waterlooville",
    "category": "vets",
    "area": "waterlooville",
    "postcode": "PO7 7FG",
    "address": "Wellington Retail Park",
    "lat": 50.88173,
    "lng": -1.0355836,
    "phone": "023 9225 6510",
    "website": "http://www.vets4pets.com/find-a-practice/vets4pets-vets-in-waterlooville?y_source=1_MjkyNTE5NzQtNzE1LWxvY2F0aW9uLndlYnNpdGU=",
    "description": "Vets4Pets - Waterlooville in Waterlooville. Professional vets serving the local community....",
    "rating": 4.8,
    "review_count": 180,
    "featured": true
  },
  {
    "id": "google-ChIJ-a4Dz3",
    "name": "Portsmouth (Cowplain) PDSA Pet Hospital",
    "slug": "portsmouth-cowplain-pdsa-pet-hospital",
    "category": "vets",
    "area": "waterlooville",
    "postcode": "PO8 8XF",
    "address": "5 Durley Ave",
    "lat": 50.8951584,
    "lng": -1.0197162,
    "phone": "023 9226 3152",
    "website": "http://www.pdsa.org.uk/",
    "description": "Portsmouth (Cowplain) PDSA Pet Hospital in Waterlooville. Professional vets serving the local community....",
    "rating": 4.6,
    "review_count": 886,
    "featured": true
  },
  {
    "id": "google-ChIJJWrhRR",
    "name": "St Peter's Vets, Horndean",
    "slug": "st-peters-vets-horndean",
    "category": "vets",
    "area": "waterlooville",
    "postcode": "PO8 9LH",
    "address": "67 Portsmouth Rd",
    "lat": 50.91051539999999,
    "lng": -1.0034219,
    "phone": "023 9259 2526",
    "website": "http://www.stpetersvets.co.uk/?utm_source=google&utm_medium=organic&utm_campaign=VP0316",
    "description": "St Peter's Vets, Horndean in Waterlooville. Professional vets serving the local community....",
    "rating": 4.8,
    "review_count": 334,
    "featured": true
  },
  {
    "id": "google-ChIJt9SYAn",
    "name": "Animed Veterinary Group – Cowplain",
    "slug": "animed-veterinary-group-cowplain",
    "category": "vets",
    "area": "waterlooville",
    "postcode": "PO8 8DF",
    "address": "35A London Rd",
    "lat": 50.893332,
    "lng": -1.0197921,
    "phone": "023 9225 5102",
    "website": "https://www.vetcollection.co.uk/south-east/animed-veterinary-clinic-cowplain/?utm_source=google&utm_medium=Yext",
    "description": "Animed Veterinary Group – Cowplain in Waterlooville. Professional vets serving the local community....",
    "rating": 4.7,
    "review_count": 47,
    "featured": false
  },
  {
    "id": "google-ChIJz87Fwp",
    "name": "Downland Veterinary Group",
    "slug": "downland-veterinary-group",
    "category": "vets",
    "area": "waterlooville",
    "postcode": "PO7 6NU",
    "address": "Hambledon Rd",
    "lat": 50.9038382,
    "lng": -1.0670769,
    "phone": "023 9223 2121",
    "website": "https://www.downlandvets.co.uk/?utm_source=gmb&utm_medium=organic&utm_campaign=attribute",
    "description": "Downland Veterinary Group in Waterlooville. Professional vets serving the local community....",
    "rating": 4.9,
    "review_count": 128,
    "featured": true
  },
  {
    "id": "google-ChIJt4Pbgd",
    "name": "Churchers Solicitors",
    "slug": "churchers-solicitors",
    "category": "solicitors",
    "area": "waterlooville",
    "postcode": "PO7 7AN",
    "address": "202 London Rd",
    "lat": 50.8760258,
    "lng": -1.0366286,
    "phone": "023 9221 0170",
    "website": "http://www.churchers.co.uk/",
    "description": "Churchers Solicitors in Waterlooville. Professional solicitors serving the local community....",
    "rating": 3.9,
    "review_count": 55,
    "featured": false
  },
  {
    "id": "google-ChIJ_xaQoD",
    "name": "Futurity Wills and Estates",
    "slug": "futurity-wills-and-estates",
    "category": "solicitors",
    "area": "waterlooville",
    "postcode": "PO8 8XB",
    "address": "87 London Rd",
    "lat": 50.8953439,
    "lng": -1.0176656,
    "phone": "023 9355 2564",
    "website": "http://www.futuritywills.co.uk/",
    "description": "Futurity Wills and Estates in Waterlooville. Professional solicitors serving the local community....",
    "rating": 5,
    "review_count": 23,
    "featured": false
  },
  {
    "id": "google-ChIJ4ZI7Q5",
    "name": "Biscoes Solicitors - Waterlooville",
    "slug": "biscoes-solicitors---waterlooville",
    "category": "solicitors",
    "area": "waterlooville",
    "postcode": "PO7 7SG",
    "address": "House 15",
    "lat": 50.886577,
    "lng": -1.042673,
    "phone": "023 9225 1257",
    "website": "https://www.biscoes-law.co.uk/site/contact/waterlooville/",
    "description": "Biscoes Solicitors - Waterlooville in Waterlooville. Professional solicitors serving the local community....",
    "rating": 3.8,
    "review_count": 33,
    "featured": false
  },
  {
    "id": "google-ChIJaYYEEA",
    "name": "Warner Goodman LLP",
    "slug": "warner-goodman-llp",
    "category": "solicitors",
    "area": "waterlooville",
    "postcode": "PO7 7TH",
    "address": "49",
    "lat": 50.8869117,
    "lng": -1.044417,
    "phone": "023 9277 6569",
    "website": "https://www.warnergoodman.co.uk/site/contact/solicitors-in-waterlooville/?utm_source=gmaps&utm_medium=organic",
    "description": "Warner Goodman LLP in Waterlooville. Professional solicitors serving the local community....",
    "rating": 4,
    "review_count": 6,
    "featured": false
  },
  {
    "id": "google-ChIJi0R4oH",
    "name": "Larcomes Legal Limited",
    "slug": "larcomes-legal-limited",
    "category": "solicitors",
    "area": "waterlooville",
    "postcode": "PO7 7TU",
    "address": "Appletree House",
    "lat": 50.8805151,
    "lng": -1.0336187,
    "phone": "023 9224 6666",
    "website": "http://www.larcomes.co.uk/",
    "description": "Larcomes Legal Limited in Waterlooville. Professional solicitors serving the local community....",
    "rating": 3.9,
    "review_count": 15,
    "featured": false
  },
  {
    "id": "google-ChIJAQAQZJ",
    "name": "Johnston Wood Roach Limited",
    "slug": "johnston-wood-roach-limited",
    "category": "accountants",
    "area": "waterlooville",
    "postcode": "PO7 7SQ",
    "address": "Hussar Court",
    "lat": 50.88606650000001,
    "lng": -1.0435012,
    "phone": "023 9226 9977",
    "website": "http://jwraccountants.co.uk/",
    "description": "Johnston Wood Roach Limited in Waterlooville. Professional accountants serving the local community....",
    "rating": 4.9,
    "review_count": 46,
    "featured": false
  },
  {
    "id": "google-ChIJPR7CCw",
    "name": "Walton Accountancy",
    "slug": "walton-accountancy",
    "category": "accountants",
    "area": "waterlooville",
    "postcode": "PO8 0BT",
    "address": "Unit 30",
    "lat": 50.9183044,
    "lng": -0.9992947999999999,
    "phone": "023 9259 3917",
    "website": "https://www.waltonaccountancy.co.uk/",
    "description": "Walton Accountancy in Waterlooville. Professional accountants serving the local community....",
    "rating": 5,
    "review_count": 190,
    "featured": true
  },
  {
    "id": "google-ChIJ_yDCQb",
    "name": "Heelan Associates Ltd",
    "slug": "heelan-associates-ltd",
    "category": "accountants",
    "area": "waterlooville",
    "postcode": "PO7 7YH",
    "address": "1",
    "lat": 50.8856801,
    "lng": -1.0416524,
    "phone": "023 9224 0040",
    "website": "http://heelanassociates.co.uk/",
    "description": "Heelan Associates Ltd in Waterlooville. Professional accountants serving the local community....",
    "rating": 4.8,
    "review_count": 51,
    "featured": false
  },
  {
    "id": "google-ChIJCxuWwG",
    "name": "Landi Accounting Ltd",
    "slug": "landi-accounting-ltd",
    "category": "accountants",
    "area": "waterlooville",
    "postcode": "PO7 5NT",
    "address": "62 Stakes Rd",
    "lat": 50.86548759999999,
    "lng": -1.038392,
    "phone": "023 9224 7440",
    "website": "http://www.landiaccounting.com/",
    "description": "Landi Accounting Ltd in Waterlooville. Professional accountants serving the local community....",
    "rating": 5,
    "review_count": 20,
    "featured": false
  },
  {
    "id": "google-ChIJZ327iB",
    "name": "TaxAssist Accountants",
    "slug": "taxassist-accountants",
    "category": "accountants",
    "area": "waterlooville",
    "postcode": "PO7 5LJ",
    "address": "2 London Rd",
    "lat": 50.8662751,
    "lng": -1.0454473,
    "phone": "023 9298 4311",
    "website": "https://www.taxassist.co.uk/accountants/waterlooville/?utm_source=google&utm_medium=google_my_business&utm_campaign=local",
    "description": "TaxAssist Accountants in Waterlooville. Professional accountants serving the local community....",
    "rating": 4.8,
    "review_count": 36,
    "featured": false
  },
  {
    "id": "google-ChIJocEtMH",
    "name": "Lacey & Co",
    "slug": "lacey-co",
    "category": "accountants",
    "area": "waterlooville",
    "postcode": "PO7 7HB",
    "address": "238A London Rd",
    "lat": 50.8781493,
    "lng": -1.0335798,
    "phone": "023 9223 2312",
    "website": "http://www.laceyandco.co.uk/",
    "description": "Lacey & Co in Waterlooville. Professional accountants serving the local community....",
    "rating": 5,
    "review_count": 3,
    "featured": false
  },
  {
    "id": "google-ChIJdcXiLX",
    "name": "Quick Accountancy Ltd",
    "slug": "quick-accountancy-ltd",
    "category": "accountants",
    "area": "waterlooville",
    "postcode": "PO7 7DZ",
    "address": "113A London Rd",
    "lat": 50.8804427,
    "lng": -1.0313653,
    "phone": "023 9225 7102",
    "website": "http://www.quickaccountancy.com/",
    "description": "Quick Accountancy Ltd in Waterlooville. Professional accountants serving the local community....",
    "rating": 5,
    "review_count": 5,
    "featured": false
  },
  {
    "id": "google-ChIJS1tbVb",
    "name": "Phelan Cloud Accounting",
    "slug": "phelan-cloud-accounting",
    "category": "accountants",
    "area": "waterlooville",
    "postcode": "PO7 7TH",
    "address": "8A",
    "lat": 50.886931,
    "lng": -1.0444187,
    "phone": "023 9200 4344",
    "website": "https://www.phelancloudaccounting.co.uk/",
    "description": "Phelan Cloud Accounting in Waterlooville. Professional accountants serving the local community....",
    "rating": 5,
    "review_count": 8,
    "featured": false
  },
  {
    "id": "google-ChIJzyu-yn",
    "name": "Accounting Southern Ltd",
    "slug": "accounting-southern-ltd",
    "category": "accountants",
    "area": "waterlooville",
    "postcode": "PO7 7DT",
    "address": "The Precinct",
    "lat": 50.880086,
    "lng": -1.030293,
    "phone": "023 9224 1368",
    "website": "https://www.facebook.com/Abacus-Accounting-Southern-ltd-407431822936546/",
    "description": "Accounting Southern Ltd in Waterlooville. Professional accountants serving the local community....",
    "rating": 4.2,
    "review_count": 5,
    "featured": false
  },
  {
    "id": "google-ChIJ6Y3fYn",
    "name": "MMO Ltd",
    "slug": "mmo-ltd",
    "category": "accountants",
    "area": "waterlooville",
    "postcode": "PO7 7AN",
    "address": "Wellesley house",
    "lat": 50.8760968,
    "lng": -1.0368916,
    "phone": "023 9223 1006",
    "website": "http://www.mmo-accountants.co.uk/",
    "description": "MMO Ltd in Waterlooville. Professional accountants serving the local community....",
    "rating": 4.4,
    "review_count": 7,
    "featured": false
  },
  {
    "id": "google-ChIJJ1hhxU",
    "name": "Athena Accounting Ltd",
    "slug": "athena-accounting-ltd",
    "category": "accountants",
    "area": "waterlooville",
    "postcode": "PO7 6BG",
    "address": "81 Andrew Cres",
    "lat": 50.888889,
    "lng": -1.037774,
    "phone": "07401 239527",
    "website": "http://www.athena-ltd.com/",
    "description": "Athena Accounting Ltd in Waterlooville. Professional accountants serving the local community....",
    "rating": 5,
    "review_count": 7,
    "featured": false
  },
  {
    "id": "google-ChIJDZAvqH",
    "name": "Stuart Hoare Chartered Accountants",
    "slug": "stuart-hoare-chartered-accountants",
    "category": "accountants",
    "area": "waterlooville",
    "postcode": "PO8 8XB",
    "address": "87 London Rd",
    "lat": 50.8953475,
    "lng": -1.0176882,
    "phone": "023 9225 4404",
    "website": "https://stuarthoare.co.uk/",
    "description": "Stuart Hoare Chartered Accountants in Waterlooville. Professional accountants serving the local community....",
    "rating": 4.2,
    "review_count": 5,
    "featured": false
  },
  {
    "id": "google-ChIJR2XbyT",
    "name": "Skynet Accounting - Accountants For Manufacturing & Engineering",
    "slug": "skynet-accounting---accountants-for-manufacturing-engineering",
    "category": "accountants",
    "area": "waterlooville",
    "postcode": "PO8 0BH",
    "address": "42a The Yews",
    "lat": 50.9152212,
    "lng": -0.9980283,
    "phone": "023 9355 3991",
    "website": "https://www.skynetaccounting.co.uk/",
    "description": "Skynet Accounting - Accountants For Manufacturing & Engineering in Waterlooville. Professional accountants serving the local community....",
    "rating": 5,
    "review_count": 6,
    "featured": false
  },
  {
    "id": "google-ChIJ0_rUwW",
    "name": "The Digital Accounting Department",
    "slug": "the-digital-accounting-department",
    "category": "accountants",
    "area": "waterlooville",
    "postcode": "PO7 7TN",
    "address": "Hermitage House",
    "lat": 50.880121,
    "lng": -1.033274,
    "phone": "023 9400 4169",
    "website": "http://www.digitalaccountingdept.co.uk/",
    "description": "The Digital Accounting Department in Waterlooville. Professional accountants serving the local community....",
    "rating": 5,
    "review_count": 1,
    "featured": false
  },
  {
    "id": "google-ChIJ-2pMrK",
    "name": "SJS Advisory Ltd",
    "slug": "sjs-advisory-ltd",
    "category": "accountants",
    "area": "waterlooville",
    "postcode": "PO7 7SG",
    "address": "Suite 19",
    "lat": 50.886875,
    "lng": -1.0431988,
    "phone": "",
    "website": "https://sjsadvisory.co.uk/?utm_source=GMB&utm_medium=organic&utm_campaign=sjs_advisory_gmb",
    "description": "SJS Advisory Ltd in Waterlooville. Professional accountants serving the local community....",
    "rating": 5,
    "review_count": 3,
    "featured": false
  },
  {
    "id": "google-ChIJMYM3h3",
    "name": "Abacus Accounting Southern",
    "slug": "abacus-accounting-southern",
    "category": "accountants",
    "area": "waterlooville",
    "postcode": "PO7 7NJ",
    "address": "5 Halifax Rise",
    "lat": 50.8779382,
    "lng": -1.022942,
    "phone": "023 9224 1368",
    "website": "",
    "description": "Abacus Accounting Southern in Waterlooville. Professional accountants serving the local community....",
    "rating": 5,
    "review_count": 4,
    "featured": false
  },
  {
    "id": "google-ChIJUQeyj8",
    "name": "Business Bar",
    "slug": "business-bar",
    "category": "accountants",
    "area": "waterlooville",
    "postcode": "PO7 6NU",
    "address": "Hambledon Rd",
    "lat": 50.90394569999999,
    "lng": -1.0668109,
    "phone": "023 9226 6433",
    "website": "http://www.businessbar.co.uk/",
    "description": "Business Bar in Waterlooville. Professional accountants serving the local community....",
    "rating": 5,
    "review_count": 1,
    "featured": false
  },
  {
    "id": "google-ChIJnaa7YJ",
    "name": "C J Lewis Chartered Accountants",
    "slug": "c-j-lewis-chartered-accountants",
    "category": "accountants",
    "area": "waterlooville",
    "postcode": "PO7 6YB",
    "address": "23 The Willows",
    "lat": 50.9000127,
    "lng": -1.0710075,
    "phone": "023 9206 4963",
    "website": "",
    "description": "C J Lewis Chartered Accountants in Waterlooville. Professional accountants serving the local community....",
    "rating": 5,
    "review_count": 2,
    "featured": false
  },
  {
    "id": "google-ChIJ3UmaJX",
    "name": "A J Eyre and Sons Waterlooville Estate Agents",
    "slug": "a-j-eyre-and-sons-waterlooville-estate-agents",
    "category": "estate-agents",
    "area": "waterlooville",
    "postcode": "PO7 7EX",
    "address": "51 London Rd",
    "lat": 50.87815759999999,
    "lng": -1.0340804,
    "phone": "023 9225 9226",
    "website": "https://www.eyreandsons.co.uk/",
    "description": "A J Eyre and Sons Waterlooville Estate Agents in Waterlooville. Professional estate agents serving the local community....",
    "rating": 4.9,
    "review_count": 68,
    "featured": false
  },
  {
    "id": "google-ChIJqWj_1X",
    "name": "Archbold & Edwards",
    "slug": "archbold-edwards",
    "category": "estate-agents",
    "area": "waterlooville",
    "postcode": "PO7 7HB",
    "address": "224 London Rd",
    "lat": 50.8778781,
    "lng": -1.0340157,
    "phone": "023 9225 7999",
    "website": "http://www.archboldandedwards.co.uk/",
    "description": "Archbold & Edwards in Waterlooville. Professional estate agents serving the local community....",
    "rating": 4.6,
    "review_count": 126,
    "featured": true
  },
  {
    "id": "google-ChIJaefwMH",
    "name": "Cubitt & West Waterlooville Estate Agents",
    "slug": "cubitt-west-waterlooville-estate-agents",
    "category": "estate-agents",
    "area": "waterlooville",
    "postcode": "PO7 7HB",
    "address": "230 London Rd",
    "lat": 50.8780129,
    "lng": -1.0337792,
    "phone": "023 9226 7244",
    "website": "https://www.cubittandwest.co.uk/estate-agent-in-waterlooville?utm_source=google&utm_medium=Yext&utm_campaign=YextListings",
    "description": "Cubitt & West Waterlooville Estate Agents in Waterlooville. Professional estate agents serving the local community....",
    "rating": 4.8,
    "review_count": 90,
    "featured": false
  },
  {
    "id": "google-ChIJc-gba3",
    "name": "Fox and Sons Estate Agents Waterlooville",
    "slug": "fox-and-sons-estate-agents-waterlooville",
    "category": "estate-agents",
    "area": "waterlooville",
    "postcode": "PO7 7ES",
    "address": "81B London Rd",
    "lat": 50.8790302,
    "lng": -1.033054,
    "phone": "023 9226 2447",
    "website": "https://www.fox-and-sons.co.uk/estate-agents/waterlooville?utm_source=Google&utm_medium=Main+URL&utm_campaign=Google+Knowledge+Panel&utm_id=YEXT&y_source=1_NjUyNTUxODAtNzE1LWxvY2F0aW9uLndlYnNpdGU%3D",
    "description": "Fox and Sons Estate Agents Waterlooville in Waterlooville. Professional estate agents serving the local community....",
    "rating": 4.6,
    "review_count": 67,
    "featured": false
  },
  {
    "id": "google-ChIJgd2Ien",
    "name": "Pearsons Estate Agents Waterlooville",
    "slug": "pearsons-estate-agents-waterlooville",
    "category": "estate-agents",
    "area": "waterlooville",
    "postcode": "PO7 7EL",
    "address": "77 London Rd",
    "lat": 50.8789929,
    "lng": -1.0328248,
    "phone": "023 9226 2611",
    "website": "https://pearsons.com/estate-and-lettings-agents/waterlooville",
    "description": "Pearsons Estate Agents Waterlooville in Waterlooville. Professional estate agents serving the local community....",
    "rating": 4.8,
    "review_count": 90,
    "featured": false
  },
  {
    "id": "google-ChIJQbsxR3",
    "name": "Jeffries & Dibbens Estate Agents - Waterlooville",
    "slug": "jeffries-dibbens-estate-agents---waterlooville",
    "category": "estate-agents",
    "area": "waterlooville",
    "postcode": "PO7 7HP",
    "address": "226 London Rd",
    "lat": 50.8779243,
    "lng": -1.0339946,
    "phone": "023 9223 1100",
    "website": "https://jdea.co.uk/waterlooville-estate-agent/",
    "description": "Jeffries & Dibbens Estate Agents - Waterlooville in Waterlooville. Professional estate agents serving the local community....",
    "rating": 4.5,
    "review_count": 56,
    "featured": false
  },
  {
    "id": "google-ChIJ3UmaJX",
    "name": "Leaders Letting & Estate Agents Waterlooville",
    "slug": "leaders-letting-estate-agents-waterlooville",
    "category": "estate-agents",
    "area": "waterlooville",
    "postcode": "PO7 7EX",
    "address": "55-59 London Rd",
    "lat": 50.878217,
    "lng": -1.0339315,
    "phone": "023 9224 0809",
    "website": "https://www.leaders.co.uk/our-offices/hampshire/estate-agents-in-waterlooville/?utm_source=localmaps&utm_medium=gbp&utm_campaign=gmb_waterlooville",
    "description": "Leaders Letting & Estate Agents Waterlooville in Waterlooville. Professional estate agents serving the local community....",
    "rating": 5,
    "review_count": 346,
    "featured": true
  },
  {
    "id": "google-ChIJd7ud2_",
    "name": "Steve Grantham Bespoke",
    "slug": "steve-grantham-bespoke",
    "category": "estate-agents",
    "area": "waterlooville",
    "postcode": "PO8 0JL",
    "address": "32a Drift Rd",
    "lat": 50.9352673,
    "lng": -0.9987683,
    "phone": "023 9309 0015",
    "website": "http://www.stevegranthambespoke.co.uk/",
    "description": "Steve Grantham Bespoke in Waterlooville. Professional estate agents serving the local community....",
    "rating": 5,
    "review_count": 247,
    "featured": true
  },
  {
    "id": "google-ChIJkUXTdn",
    "name": "Mann Sales and Letting Agents Waterlooville",
    "slug": "mann-sales-and-letting-agents-waterlooville",
    "category": "estate-agents",
    "area": "waterlooville",
    "postcode": "PO7 7ED",
    "address": "11 Wellington Wy",
    "lat": 50.8797982,
    "lng": -1.0324071,
    "phone": "023 8181 0685",
    "website": "https://www.manncountrywide.co.uk/branch/forsaleoffice/waterlooville/1164/?referrer=GooglePlaces&utm_source=gmb&y_source=1_MzU2MDcyOC03MTUtbG9jYXRpb24ud2Vic2l0ZQ%3D%3D",
    "description": "Mann Sales and Letting Agents Waterlooville in Waterlooville. Professional estate agents serving the local community....",
    "rating": 4.6,
    "review_count": 181,
    "featured": true
  },
  {
    "id": "google-ChIJL8Kil3",
    "name": "Morris Dibben Estate Agents Cowplain",
    "slug": "morris-dibben-estate-agents-cowplain",
    "category": "estate-agents",
    "area": "waterlooville",
    "postcode": "PO8 8UJ",
    "address": "59 London Rd",
    "lat": 50.8944403,
    "lng": -1.0184903,
    "phone": "023 8098 7729",
    "website": "http://www.morrisdibben.co.uk/forsaleoffice/cowplain/1019/?referrer=GooglePlaces&utm_source=gmb&y_source=1_MzU2MDc1Ni03MTUtbG9jYXRpb24ud2Vic2l0ZQ%3D%3D",
    "description": "Morris Dibben Estate Agents Cowplain in Waterlooville. Professional estate agents serving the local community....",
    "rating": 4.6,
    "review_count": 52,
    "featured": false
  },
  {
    "id": "google-ChIJx5fnS7",
    "name": "Pearsons Estate Agents Clanfield",
    "slug": "pearsons-estate-agents-clanfield",
    "category": "estate-agents",
    "area": "waterlooville",
    "postcode": "PO8 0JS",
    "address": "41 Drift Rd",
    "lat": 50.9352726,
    "lng": -0.9999178,
    "phone": "023 9259 1717",
    "website": "https://pearsons.com/estate-and-lettings-agents/clanfield",
    "description": "Pearsons Estate Agents Clanfield in Waterlooville. Professional estate agents serving the local community....",
    "rating": 5,
    "review_count": 27,
    "featured": false
  },
  {
    "id": "google-ChIJjfSqbb",
    "name": "Pearsons Estate Agents Denmead",
    "slug": "pearsons-estate-agents-denmead",
    "category": "estate-agents",
    "area": "waterlooville",
    "postcode": "PO7 6NU",
    "address": "Hambledon Rd",
    "lat": 50.9039683,
    "lng": -1.0665264,
    "phone": "023 9225 9151",
    "website": "https://pearsons.com/estate-and-lettings-agents/denmead",
    "description": "Pearsons Estate Agents Denmead in Waterlooville. Professional estate agents serving the local community....",
    "rating": 4.3,
    "review_count": 56,
    "featured": false
  },
  {
    "id": "google-ChIJAWb_1X",
    "name": "AJM Estate Agents Waterlooville",
    "slug": "ajm-estate-agents-waterlooville",
    "category": "estate-agents",
    "area": "waterlooville",
    "postcode": "PO7 6BE",
    "address": "49 Andrew Cres",
    "lat": 50.890152,
    "lng": -1.0357507,
    "phone": "023 9221 0036",
    "website": "http://www.ajmestates.co.uk/",
    "description": "AJM Estate Agents Waterlooville in Waterlooville. Professional estate agents serving the local community....",
    "rating": 1,
    "review_count": 1,
    "featured": false
  },
  {
    "id": "google-ChIJNS9Eln",
    "name": "Pasha Restaurant",
    "slug": "pasha-restaurant",
    "category": "restaurants",
    "area": "waterlooville",
    "postcode": "PO8 8UJ",
    "address": "55B London Rd",
    "lat": 50.8941486,
    "lng": -1.0186351,
    "phone": "023 9223 0111",
    "website": "https://pashacowplain.orderyoyo.co.uk/?utm_source=GMBorder&utm_medium=organic&utm_campaign=Google%20My%20Business",
    "description": "Pasha Restaurant in Waterlooville. Professional restaurants serving the local community....",
    "rating": 4.1,
    "review_count": 169,
    "featured": true
  },
  {
    "id": "google-ChIJySP5iM",
    "name": "Barnard's Restaurant",
    "slug": "barnards-restaurant",
    "category": "restaurants",
    "area": "waterlooville",
    "postcode": "PO7 6NU",
    "address": "Hambledon Rd",
    "lat": 50.9040796,
    "lng": -1.0651643,
    "phone": "023 9225 7788",
    "website": "https://www.barnardsrestaurant.co.uk/",
    "description": "Barnard's Restaurant in Waterlooville. Professional restaurants serving the local community....",
    "rating": 4.7,
    "review_count": 201,
    "featured": true
  },
  {
    "id": "google-ChIJgQE14n",
    "name": "Cowplain Social Club",
    "slug": "cowplain-social-club",
    "category": "pubs",
    "area": "waterlooville",
    "postcode": "PO8 8EN",
    "address": "54 London Rd",
    "lat": 50.89673579999999,
    "lng": -1.016288,
    "phone": "023 9278 2100",
    "website": "http://www.cowplainsocialclub.org.uk/",
    "description": "Cowplain Social Club in Waterlooville. Professional pubs serving the local community....",
    "rating": 4.5,
    "review_count": 334,
    "featured": true
  },
  {
    "id": "google-ChIJaY_t_Y",
    "name": "The Rainbow",
    "slug": "the-rainbow",
    "category": "pubs",
    "area": "waterlooville",
    "postcode": "PO8 8SE",
    "address": "214 Milton Rd",
    "lat": 50.8931665,
    "lng": -1.0317562,
    "phone": "023 9226 7225",
    "website": "",
    "description": "The Rainbow in Waterlooville. Professional pubs serving the local community....",
    "rating": 3.9,
    "review_count": 98,
    "featured": false
  },
  {
    "id": "google-ChIJq6pqwn",
    "name": "Home Bargains",
    "slug": "home-bargains",
    "category": "supermarkets",
    "area": "waterlooville",
    "postcode": "PO7 7FG",
    "address": "Unit 9a Hambledon Rd",
    "lat": 50.8817359,
    "lng": -1.0357079,
    "phone": "023 9225 6345",
    "website": "https://home.bargains/",
    "description": "Home Bargains in Waterlooville. Professional supermarkets serving the local community....",
    "rating": 4.3,
    "review_count": 1228,
    "featured": true
  },
  {
    "id": "google-ChIJZ_QvWp",
    "name": "Lidl",
    "slug": "lidl",
    "category": "supermarkets",
    "area": "waterlooville",
    "postcode": "PO7 7XS",
    "address": "Elettra Ave",
    "lat": 50.88507999999999,
    "lng": -1.04079,
    "phone": "",
    "website": "https://www.lidl.co.uk/",
    "description": "Lidl in Waterlooville. Professional supermarkets serving the local community....",
    "rating": 4.3,
    "review_count": 1075,
    "featured": true
  },
  {
    "id": "google-ChIJz1vVxe",
    "name": "JH Hairdressing",
    "slug": "jh-hairdressing",
    "category": "hair-salons",
    "area": "waterlooville",
    "postcode": "PO8 8DF",
    "address": "29 London Rd",
    "lat": 50.8929212,
    "lng": -1.0198604,
    "phone": "023 9400 4569",
    "website": "https://jhhairdressing.com/",
    "description": "JH Hairdressing in Waterlooville. Professional hair salons serving the local community....",
    "rating": 5,
    "review_count": 15,
    "featured": false
  },
  {
    "id": "google-ChIJVz-g6m",
    "name": "Diverse Hair Design",
    "slug": "diverse-hair-design",
    "category": "hair-salons",
    "area": "waterlooville",
    "postcode": "PO8 9BT",
    "address": "58 Hazleton Way",
    "lat": 50.89988349999999,
    "lng": -1.0074556,
    "phone": "023 9257 0008",
    "website": "",
    "description": "Diverse Hair Design in Waterlooville. Professional hair salons serving the local community....",
    "rating": 4.4,
    "review_count": 17,
    "featured": false
  },
  {
    "id": "google-ChIJ7TKkWH",
    "name": "LJ hairdressing",
    "slug": "lj-hairdressing",
    "category": "hair-salons",
    "area": "waterlooville",
    "postcode": "PO8 8DF",
    "address": "29 London Rd",
    "lat": 50.8929066,
    "lng": -1.0198764,
    "phone": "07565 421427",
    "website": "",
    "description": "LJ hairdressing in Waterlooville. Professional hair salons serving the local community....",
    "rating": 0,
    "review_count": 0,
    "featured": false
  },
  {
    "id": "google-ChIJRfAFvn",
    "name": "The Cowplain Barber Shop",
    "slug": "the-cowplain-barber-shop",
    "category": "hair-salons",
    "area": "waterlooville",
    "postcode": "PO8 8EW",
    "address": "64 London Rd",
    "lat": 50.8974573,
    "lng": -1.0161615,
    "phone": "023 9400 0385",
    "website": "https://thecowplainbarbershop.setmore.com/",
    "description": "The Cowplain Barber Shop in Waterlooville. Professional hair salons serving the local community....",
    "rating": 4.7,
    "review_count": 121,
    "featured": true
  },
  {
    "id": "google-ChIJl0Oh4h",
    "name": "Hair raising",
    "slug": "hair-raising",
    "category": "hair-salons",
    "area": "waterlooville",
    "postcode": "PO8 9LA",
    "address": "4-5",
    "lat": 50.91357439999999,
    "lng": -0.9974780000000001,
    "phone": "07428 603561",
    "website": "http://www.stylefive.co.uk/",
    "description": "Hair raising in Waterlooville. Professional hair salons serving the local community....",
    "rating": 4.9,
    "review_count": 10,
    "featured": false
  },
  {
    "id": "google-ChIJldjDZP",
    "name": "The Debretts Hair Salon",
    "slug": "the-debretts-hair-salon",
    "category": "hair-salons",
    "area": "waterlooville",
    "postcode": "PO8 9QQ",
    "address": "2 Frogmore Ln",
    "lat": 50.90513,
    "lng": -1.0216026,
    "phone": "023 9259 2568",
    "website": "http://www.debrettshairsalon.co.uk/",
    "description": "The Debretts Hair Salon in Waterlooville. Professional hair salons serving the local community....",
    "rating": 4.7,
    "review_count": 10,
    "featured": false
  },
  {
    "id": "google-ChIJ6eCJIr",
    "name": "Aro Fitness Kickboxing Cowplain",
    "slug": "aro-fitness-kickboxing-cowplain",
    "category": "gyms",
    "area": "waterlooville",
    "postcode": "PO8 8EH",
    "address": "Padnell Rd",
    "lat": 50.8941544,
    "lng": -1.0118325,
    "phone": "07488 318906",
    "website": "https://www.arofitnesskickboxing.co.uk/",
    "description": "Aro Fitness Kickboxing Cowplain in Waterlooville. Professional gyms serving the local community....",
    "rating": 4.9,
    "review_count": 7,
    "featured": false
  },
  {
    "id": "google-ChIJR5Q1TS",
    "name": "Jackies' Fitness Club",
    "slug": "jackies-fitness-club",
    "category": "gyms",
    "area": "waterlooville",
    "postcode": "PO8 0YF",
    "address": "Endal Way",
    "lat": 50.9411073,
    "lng": -0.9955767,
    "phone": "07597 174256",
    "website": "https://www.jackiesfitnessclub.co.uk/",
    "description": "Jackies' Fitness Club in Waterlooville. Professional gyms serving the local community....",
    "rating": 5,
    "review_count": 9,
    "featured": false
  },
  {
    "id": "google-ChIJDW9koS",
    "name": "Bootcamp UK Waterlooville - Outdoor Fitness Classes In Waterlooville",
    "slug": "bootcamp-uk-waterlooville---outdoor-fitness-classes-in-waterlooville",
    "category": "gyms",
    "area": "waterlooville",
    "postcode": "PO7 5RX",
    "address": "Purbrook Heath Rd",
    "lat": 50.8658917,
    "lng": -1.0494973,
    "phone": "07769 153619",
    "website": "https://www.bcuk.uk/all-locations/waterlooville/",
    "description": "Bootcamp UK Waterlooville - Outdoor Fitness Classes In Waterlooville in Waterlooville. Professional gyms serving the local community....",
    "rating": 4.9,
    "review_count": 44,
    "featured": false
  },
  {
    "id": "google-ChIJlxV5pf",
    "name": "Pilates with Holly",
    "slug": "pilates-with-holly",
    "category": "gyms",
    "area": "waterlooville",
    "postcode": "PO8 8DZ",
    "address": "1 Padnell Rd",
    "lat": 50.8954163,
    "lng": -1.016257,
    "phone": "07722 833391",
    "website": "https://www.facebook.com/profile.php?id=61560343940473",
    "description": "Pilates with Holly in Waterlooville. Professional gyms serving the local community....",
    "rating": 5,
    "review_count": 10,
    "featured": false
  },
  {
    "id": "google-ChIJ40WLPH",
    "name": "C.Amey Plumbing & Heating Services Ltd",
    "slug": "camey-plumbing-heating-services-ltd",
    "category": "plumbers",
    "area": "waterlooville",
    "postcode": "PO7 8NB",
    "address": "6 Crystal Way",
    "lat": 50.8810226,
    "lng": -1.0130141,
    "phone": "07765 165165",
    "website": "http://www.camey.co.uk/",
    "description": "C.Amey Plumbing & Heating Services Ltd in Waterlooville. Professional plumbers serving the local community....",
    "rating": 5,
    "review_count": 2,
    "featured": false
  },
  {
    "id": "google-ChIJwWk5XX",
    "name": "KB Plumbing",
    "slug": "kb-plumbing",
    "category": "plumbers",
    "area": "waterlooville",
    "postcode": "PO8 9AW",
    "address": "35 Cotwell Ave",
    "lat": 50.9005029,
    "lng": -1.0107975,
    "phone": "023 9259 6653",
    "website": "",
    "description": "KB Plumbing in Waterlooville. Professional plumbers serving the local community....",
    "rating": 5,
    "review_count": 1,
    "featured": false
  },
  {
    "id": "google-ChIJ0dlpSj",
    "name": "CGB Electrical Services Ltd",
    "slug": "cgb-electrical-services-ltd",
    "category": "electricians",
    "area": "waterlooville",
    "postcode": "PO8 0DH",
    "address": "51 Derwent Cl",
    "lat": 50.929075,
    "lng": -1.002449,
    "phone": "07767 015024",
    "website": "https://cgbelectrical.co.uk/",
    "description": "CGB Electrical Services Ltd in Waterlooville. Professional electricians serving the local community....",
    "rating": 5,
    "review_count": 7,
    "featured": false
  },
  {
    "id": "google-ChIJIXYORW",
    "name": "Southern VSR Ltd (Mobile Mechanics)",
    "slug": "southern-vsr-ltd-mobile-mechanics",
    "category": "car-mechanics",
    "area": "waterlooville",
    "postcode": "PO8 9RL",
    "address": "8 Woodbury Grove",
    "lat": 50.9049167,
    "lng": -1.0235025,
    "phone": "023 9229 2548",
    "website": "http://www.svsm.co.uk/",
    "description": "Southern VSR Ltd (Mobile Mechanics) in Waterlooville. Professional car mechanics serving the local community....",
    "rating": 4.7,
    "review_count": 55,
    "featured": false
  },
  {
    "id": "google-ChIJe0lXyp",
    "name": "Windmill Garage - The Family Car Garage",
    "slug": "windmill-garage---the-family-car-garage",
    "category": "car-mechanics",
    "area": "waterlooville",
    "postcode": "PO8 0HW",
    "address": "249 London Rd",
    "lat": 50.9301326,
    "lng": -0.9969213000000001,
    "phone": "023 9257 1003",
    "website": "https://www.windmillgarage.co.uk/",
    "description": "Windmill Garage - The Family Car Garage in Waterlooville. Professional car mechanics serving the local community....",
    "rating": 4.8,
    "review_count": 109,
    "featured": true
  },
  {
    "id": "google-ChIJiUTuo3",
    "name": "Panthera Estate Planning Ltd",
    "slug": "panthera-estate-planning-ltd",
    "category": "solicitors",
    "area": "waterlooville",
    "postcode": "PO8 9EH",
    "address": "26 Greenfield Cres",
    "lat": 50.8970561,
    "lng": -1.007942,
    "phone": "023 9319 0377",
    "website": "http://pantheraestateplanning.co.uk/",
    "description": "Panthera Estate Planning Ltd in Waterlooville. Professional solicitors serving the local community....",
    "rating": 1,
    "review_count": 1,
    "featured": false
  },
  {
    "id": "google-ChIJr1vGq5",
    "name": "Abacus Accounting Services Limited",
    "slug": "abacus-accounting-services-limited",
    "category": "accountants",
    "area": "waterlooville",
    "postcode": "PO8",
    "address": "113 Eagle Ave",
    "lat": 50.9006803,
    "lng": -1.0356257,
    "phone": "",
    "website": "",
    "description": "Abacus Accounting Services Limited in Waterlooville. Professional accountants serving the local community....",
    "rating": 5,
    "review_count": 1,
    "featured": false
  },
  {
    "id": "google-ChIJrVxC6_",
    "name": "The Running Accountant Limited",
    "slug": "the-running-accountant-limited",
    "category": "accountants",
    "area": "waterlooville",
    "postcode": "PO8 9GY",
    "address": "Farmers Wy.",
    "lat": 50.9172637,
    "lng": -1.004857,
    "phone": "",
    "website": "http://therunningfcca.co.uk/",
    "description": "The Running Accountant Limited in Waterlooville. Professional accountants serving the local community....",
    "rating": 0,
    "review_count": 0,
    "featured": false
  },
  {
    "id": "google-ChIJJVG4oD",
    "name": "AGL Accounting Services Ltd",
    "slug": "agl-accounting-services-ltd",
    "category": "accountants",
    "area": "waterlooville",
    "postcode": "PO7 7LB",
    "address": "Stakes Hill Rd",
    "lat": 50.8769554,
    "lng": -1.0298885,
    "phone": "07935 477066",
    "website": "http://www.aglaccountingservices.co.uk/",
    "description": "AGL Accounting Services Ltd in Waterlooville. Professional accountants serving the local community....",
    "rating": 0,
    "review_count": 0,
    "featured": false
  },
  {
    "id": "google-ChIJmQuSOQ",
    "name": "BMB ACCOUNTANCY & BOOKKEEPING SERVICES",
    "slug": "bmb-accountancy-bookkeeping-services",
    "category": "accountants",
    "area": "waterlooville",
    "postcode": "PO8 9PJ",
    "address": "54 Victory Ave",
    "lat": 50.9104482,
    "lng": -1.0164896,
    "phone": "023 9257 0805",
    "website": "",
    "description": "BMB ACCOUNTANCY & BOOKKEEPING SERVICES in Waterlooville. Professional accountants serving the local community....",
    "rating": 0,
    "review_count": 0,
    "featured": false
  },
  {
    "id": "google-ChIJ_2Bquh",
    "name": "Kassia Lounge, Denmead",
    "slug": "kassia-lounge-denmead",
    "category": "restaurants",
    "area": "waterlooville",
    "postcode": "PO7 6NU",
    "address": "Hambledon Rd",
    "lat": 50.9040919,
    "lng": -1.0657861,
    "phone": "023 9225 5988",
    "website": "http://www.kassia.co.uk/denmead",
    "description": "Kassia Lounge, Denmead in Waterlooville. Professional restaurants serving the local community....",
    "rating": 4.8,
    "review_count": 144,
    "featured": true
  },
  {
    "id": "google-ChIJed9kjN",
    "name": "Horse & Jockey",
    "slug": "horse-jockey",
    "category": "restaurants",
    "area": "denmead",
    "postcode": "PO7 4QY",
    "address": "The Horse & Jockey",
    "lat": 50.8988318,
    "lng": -1.1146692,
    "phone": "023 9263 2980",
    "website": "http://www.horseandjockey.pub/",
    "description": "Horse & Jockey in Denmead. Professional restaurants serving the local community....",
    "rating": 4.4,
    "review_count": 738,
    "featured": true
  },
  {
    "id": "google-ChIJ9YpDMH",
    "name": "The Denmead Queen - JD Wetherspoon",
    "slug": "the-denmead-queen---jd-wetherspoon",
    "category": "pubs",
    "area": "waterlooville",
    "postcode": "PO7 7EB",
    "address": "8-9",
    "lat": 50.8807903,
    "lng": -1.0306082,
    "phone": "023 9224 7430",
    "website": "https://www.jdwetherspoon.com/pubs/all-pubs/england/hampshire/the-denmead-queen-waterlooville",
    "description": "The Denmead Queen - JD Wetherspoon in Waterlooville. Professional pubs serving the local community....",
    "rating": 4,
    "review_count": 1354,
    "featured": true
  },
  {
    "id": "google-ChIJR-umko",
    "name": "The Old Forge Tea Room Hambledon.",
    "slug": "the-old-forge-tea-room-hambledon",
    "category": "cafes",
    "area": "waterlooville",
    "postcode": "PO7 4SN",
    "address": "West St",
    "lat": 50.92716369999999,
    "lng": -1.088747,
    "phone": "023 9263 2452",
    "website": "https://ukcompany.business/waterlooville/294706-the-old-forge-tea-room-hambledon",
    "description": "The Old Forge Tea Room Hambledon. in Waterlooville. Professional cafes serving the local community....",
    "rating": 4.9,
    "review_count": 253,
    "featured": true
  },
  {
    "id": "google-ChIJP_YaGn",
    "name": "M&S Café",
    "slug": "ms-caf",
    "category": "cafes",
    "area": "waterlooville",
    "postcode": "PO7 7FG",
    "address": "10 Hambledon Rd",
    "lat": 50.8820093,
    "lng": -1.0336416,
    "phone": "023 9239 7011",
    "website": "https://www.marksandspencer.com/food/content/category/cafe",
    "description": "M&S Café in Waterlooville. Professional cafes serving the local community....",
    "rating": 0,
    "review_count": 0,
    "featured": false
  },
  {
    "id": "google-ChIJ-yv4cD",
    "name": "The Bat & Ball, Hambledon",
    "slug": "the-bat-ball-hambledon",
    "category": "pubs",
    "area": "waterlooville",
    "postcode": "PO8 0UB",
    "address": "Hyden Farm Ln",
    "lat": 50.9455096,
    "lng": -1.0382453,
    "phone": "023 9263 2692",
    "website": "https://www.batandballclanfield.co.uk/?utm_source=googlemybusiness&utm_medium=organic&utm_campaign=yext&utm_content=P203&y_source=1_MTIyMzcxMDctNzE1LWxvY2F0aW9uLndlYnNpdGU%3D",
    "description": "The Bat & Ball, Hambledon in Waterlooville. Professional pubs serving the local community....",
    "rating": 4.5,
    "review_count": 1195,
    "featured": true
  },
  {
    "id": "google-ChIJqypMrx",
    "name": "Bellissimo Hair",
    "slug": "bellissimo-hair",
    "category": "hair-salons",
    "area": "waterlooville",
    "postcode": "PO7 6NU",
    "address": "Bellissimo Hair",
    "lat": 50.9040624,
    "lng": -1.066082,
    "phone": "023 9226 8500",
    "website": "http://bellissimo-hair.co.uk/",
    "description": "Bellissimo Hair in Waterlooville. Professional hair salons serving the local community....",
    "rating": 4.9,
    "review_count": 9,
    "featured": false
  },
  {
    "id": "google-ChIJwUsCmv",
    "name": "The Hair & Beauty Garage",
    "slug": "the-hair-beauty-garage",
    "category": "hair-salons",
    "area": "waterlooville",
    "postcode": "PO7 6TE",
    "address": "Hatchmore Rd",
    "lat": 50.9028023,
    "lng": -1.0768005,
    "phone": "07791 874919",
    "website": "https://www.facebook.com/thehairandbeautygarage/",
    "description": "The Hair & Beauty Garage in Waterlooville. Professional hair salons serving the local community....",
    "rating": 5,
    "review_count": 4,
    "featured": false
  },
  {
    "id": "google-ChIJ58t2CS",
    "name": "Soulful Rose - Holistic hair and wellness",
    "slug": "soulful-rose---holistic-hair-and-wellness",
    "category": "hair-salons",
    "area": "waterlooville",
    "postcode": "PO7 6GH",
    "address": "Carpenters Way",
    "lat": 50.90443510000001,
    "lng": -1.0620566,
    "phone": "07717 262285",
    "website": "http://www.soulful-rose.com/",
    "description": "Soulful Rose - Holistic hair and wellness in Waterlooville. Professional hair salons serving the local community....",
    "rating": 5,
    "review_count": 4,
    "featured": false
  },
  {
    "id": "google-ChIJ_7sMpy",
    "name": "Thairapybyemma",
    "slug": "thairapybyemma",
    "category": "hair-salons",
    "area": "waterlooville",
    "postcode": "PO7 6ET",
    "address": "8 Brookside Cl",
    "lat": 50.9000733,
    "lng": -1.0656275,
    "phone": "07828 899982",
    "website": "",
    "description": "Thairapybyemma in Waterlooville. Professional hair salons serving the local community....",
    "rating": 5,
    "review_count": 8,
    "featured": false
  },
  {
    "id": "google-ChIJz6VziM",
    "name": "Hairworks",
    "slug": "hairworks",
    "category": "hair-salons",
    "area": "waterlooville",
    "postcode": "PO7 6NU",
    "address": "Hambledon Rd",
    "lat": 50.9039187,
    "lng": -1.0639571,
    "phone": "023 9226 8500",
    "website": "",
    "description": "Hairworks in Waterlooville. Professional hair salons serving the local community....",
    "rating": 3.7,
    "review_count": 6,
    "featured": false
  },
  {
    "id": "google-ChIJjfSqbb",
    "name": "Ginos Denmead",
    "slug": "ginos-denmead",
    "category": "hair-salons",
    "area": "waterlooville",
    "postcode": "PO7 6NU",
    "address": "Hambledon Rd",
    "lat": 50.90407339999999,
    "lng": -1.0659887,
    "phone": "",
    "website": "",
    "description": "Ginos Denmead in Waterlooville. Professional hair salons serving the local community....",
    "rating": 4.8,
    "review_count": 50,
    "featured": false
  },
  {
    "id": "google-ChIJoWJasm",
    "name": "Health To Fitness",
    "slug": "health-to-fitness",
    "category": "gyms",
    "area": "waterlooville",
    "postcode": "PO7 6XS",
    "address": "44 Old River",
    "lat": 50.8984496,
    "lng": -1.0619875,
    "phone": "07979 273979",
    "website": "http://www.healthtofitness.co.uk/",
    "description": "Health To Fitness in Waterlooville. Professional gyms serving the local community....",
    "rating": 5,
    "review_count": 1,
    "featured": false
  },
  {
    "id": "google-ChIJUQeyj8",
    "name": "Grosvenor Clinic",
    "slug": "grosvenor-clinic",
    "category": "gyms",
    "area": "waterlooville",
    "postcode": "PO7 6NU",
    "address": "Grosvenor Clinic",
    "lat": 50.90406600000001,
    "lng": -1.06503,
    "phone": "023 9223 3288",
    "website": "http://www.grosvenor-clinic.co.uk/",
    "description": "Grosvenor Clinic in Waterlooville. Professional gyms serving the local community....",
    "rating": 4.9,
    "review_count": 67,
    "featured": false
  },
  {
    "id": "google-ChIJU2GDr2",
    "name": "Rebalance Pilates & Fitness",
    "slug": "rebalance-pilates-fitness",
    "category": "gyms",
    "area": "waterlooville",
    "postcode": "PO7 4RZ",
    "address": "Whitedale Farm",
    "lat": 50.9158096,
    "lng": -1.110342,
    "phone": "07717 510275",
    "website": "http://www.rebalance-pilates.co.uk/",
    "description": "Rebalance Pilates & Fitness in Waterlooville. Professional gyms serving the local community....",
    "rating": 5,
    "review_count": 9,
    "featured": false
  },
  {
    "id": "google-ChIJCcErrZ",
    "name": "Hambledon Plumbing and Heating Ltd",
    "slug": "hambledon-plumbing-and-heating-ltd",
    "category": "plumbers",
    "area": "waterlooville",
    "postcode": "PO7 4SW",
    "address": "3 Old Barn Cres",
    "lat": 50.9285828,
    "lng": -1.0871495,
    "phone": "07885 362836",
    "website": "http://www.hambledonpandh.co.uk/",
    "description": "Hambledon Plumbing and Heating Ltd in Waterlooville. Professional plumbers serving the local community....",
    "rating": 5,
    "review_count": 1,
    "featured": false
  },
  {
    "id": "google-ChIJi3CPsa",
    "name": "Volt Drop Ltd",
    "slug": "volt-drop-ltd",
    "category": "electricians",
    "area": "waterlooville",
    "postcode": "PO8 0EP",
    "address": "131 South Rd",
    "lat": 50.9252192,
    "lng": -1.0036471,
    "phone": "07939 147576",
    "website": "",
    "description": "Volt Drop Ltd in Waterlooville. Professional electricians serving the local community....",
    "rating": 5,
    "review_count": 7,
    "featured": false
  },
  {
    "id": "google-ChIJjR6naj",
    "name": "Denmead Garage Services",
    "slug": "denmead-garage-services",
    "category": "car-mechanics",
    "area": "waterlooville",
    "postcode": "PO7 6NF",
    "address": "Hambledon Rd",
    "lat": 50.9043739,
    "lng": -1.0688856,
    "phone": "023 9223 0755",
    "website": "https://mapbusiuk.org/business/denmead-garage-services-chijjr6",
    "description": "Denmead Garage Services in Waterlooville. Professional car mechanics serving the local community....",
    "rating": 4.9,
    "review_count": 73,
    "featured": false
  },
  {
    "id": "google-ChIJ153M4m",
    "name": "Richard Oliver - Mobile Vehicle Technician",
    "slug": "richard-oliver---mobile-vehicle-technician",
    "category": "car-mechanics",
    "area": "waterlooville",
    "postcode": "PO7 7RQ",
    "address": "6 Buttercup Wy",
    "lat": 50.890994,
    "lng": -1.0477618,
    "phone": "07889 271422",
    "website": "https://uksmapdetails.org/details/richard-oliver---mobile-vehicle-technician-ChIJ153",
    "description": "Richard Oliver - Mobile Vehicle Technician in Waterlooville. Professional car mechanics serving the local community....",
    "rating": 4.7,
    "review_count": 36,
    "featured": false
  },
  {
    "id": "google-ChIJYW1nHU",
    "name": "Gibson Whitter Limited",
    "slug": "gibson-whitter-limited",
    "category": "accountants",
    "area": "denmead",
    "postcode": "PO7 6XP",
    "address": "Parklands Business Park",
    "lat": 50.8954066,
    "lng": -1.0702654,
    "phone": "023 9225 6023",
    "website": "http://www.gibsonwhitter.co.uk/",
    "description": "Gibson Whitter Limited in Denmead. Professional accountants serving the local community....",
    "rating": 0,
    "review_count": 0,
    "featured": false
  },
  {
    "id": "google-ChIJN3leHU",
    "name": "Crawford Accountants",
    "slug": "crawford-accountants",
    "category": "accountants",
    "area": "waterlooville",
    "postcode": "PO7 6XP",
    "address": "Parklands Business Park",
    "lat": 50.8950853,
    "lng": -1.0705585,
    "phone": "023 9225 1648",
    "website": "https://www.crawfordaccountants.com/",
    "description": "Crawford Accountants in Waterlooville. Professional accountants serving the local community....",
    "rating": 3.3,
    "review_count": 3,
    "featured": false
  },
  {
    "id": "google-ChIJqfA3NM",
    "name": "Saltbox Bookkeeping",
    "slug": "saltbox-bookkeeping",
    "category": "accountants",
    "area": "waterlooville",
    "postcode": "PO7 6JL",
    "address": "Edney's Ln",
    "lat": 50.9061889,
    "lng": -1.0551711,
    "phone": "07535 452478",
    "website": "",
    "description": "Saltbox Bookkeeping in Waterlooville. Professional accountants serving the local community....",
    "rating": 5,
    "review_count": 7,
    "featured": false
  },
  {
    "id": "google-ChIJEZDC2L",
    "name": "Benchmark Accounting",
    "slug": "benchmark-accounting",
    "category": "accountants",
    "area": "waterlooville",
    "postcode": "PO7 6XP",
    "address": "Denmead",
    "lat": 50.8954702,
    "lng": -1.0701545,
    "phone": "07747 613318",
    "website": "http://benchmarkaccounting.co.uk/",
    "description": "Benchmark Accounting in Waterlooville. Professional accountants serving the local community....",
    "rating": 0,
    "review_count": 0,
    "featured": false
  },
  {
    "id": "google-ChIJL-UlnB",
    "name": "The Woodman, Purbrook",
    "slug": "the-woodman-purbrook",
    "category": "pubs",
    "area": "waterlooville",
    "postcode": "PO7 5LJ",
    "address": "London Road Purbrook",
    "lat": 50.86645980000001,
    "lng": -1.0448009,
    "phone": "023 9226 3135",
    "website": "",
    "description": "The Woodman, Purbrook in Waterlooville. Professional pubs serving the local community....",
    "rating": 4.1,
    "review_count": 270,
    "featured": true
  },
  {
    "id": "google-ChIJJffV-3",
    "name": "The Hampshire Hog, Clanfield",
    "slug": "the-hampshire-hog-clanfield",
    "category": "pubs",
    "area": "waterlooville",
    "postcode": "PO8 0QD",
    "address": "London Rd",
    "lat": 50.9520317,
    "lng": -0.9830447000000001,
    "phone": "023 9259 1083",
    "website": "https://www.thehampshirehog.co.uk/?partner=8163&utm_source=googlemybusiness&utm_medium=organic&utm_campaign=yext&utm_content=P215%3Futm_source%3Dgooglemybusiness&utm_medium=organic&utm_campaign=yext&utm_content=P215&y_source=1_MTIyMzcyMTUtNzE1LWxvY2F0aW9uLndlYnNpdGU%3D",
    "description": "The Hampshire Hog, Clanfield in Waterlooville. Professional pubs serving the local community....",
    "rating": 4.3,
    "review_count": 1265,
    "featured": true
  },
  {
    "id": "google-ChIJEdfo-C",
    "name": "OLD TOWN GRILL",
    "slug": "old-town-grill",
    "category": "restaurants",
    "area": "waterlooville",
    "postcode": "PO8 0RB",
    "address": "11 South Ln",
    "lat": 50.946369,
    "lng": -1.0083899,
    "phone": "023 9259 9999",
    "website": "https://oldtowngrillclanfield.co.uk/",
    "description": "OLD TOWN GRILL in Waterlooville. Professional restaurants serving the local community....",
    "rating": 4.7,
    "review_count": 149,
    "featured": true
  },
  {
    "id": "google-ChIJqymWNx",
    "name": "Aviary Cafe",
    "slug": "aviary-cafe",
    "category": "cafes",
    "area": "waterlooville",
    "postcode": "PO8 9UX",
    "address": "3",
    "lat": 50.9012153,
    "lng": -1.0311274,
    "phone": "023 9225 8423",
    "website": "http://www.acorncentre.org.uk/",
    "description": "Aviary Cafe in Waterlooville. Professional cafes serving the local community....",
    "rating": 0,
    "review_count": 0,
    "featured": false
  },
  {
    "id": "google-ChIJ6Qnf6v",
    "name": "Brewsters Cafe",
    "slug": "brewsters-cafe",
    "category": "cafes",
    "area": "waterlooville",
    "postcode": "PO8 0YF",
    "address": "The Clanfield Centre",
    "lat": 50.94121149999999,
    "lng": -0.9958162,
    "phone": "023 9421 1650",
    "website": "https://clanfieldcentre.co.uk/",
    "description": "Brewsters Cafe in Waterlooville. Professional cafes serving the local community....",
    "rating": 4.9,
    "review_count": 12,
    "featured": false
  },
  {
    "id": "google-ChIJmeMlYh",
    "name": "Jacqueline's Hair Salon",
    "slug": "jacquelines-hair-salon",
    "category": "hair-salons",
    "area": "waterlooville",
    "postcode": "PO7 5LJ",
    "address": "34 London Rd",
    "lat": 50.8671212,
    "lng": -1.0448264,
    "phone": "023 9226 3739",
    "website": "https://uklocation.org/business/jacquelines-hair-salon-18480v",
    "description": "Jacqueline's Hair Salon in Waterlooville. Professional hair salons serving the local community....",
    "rating": 4.3,
    "review_count": 7,
    "featured": false
  },
  {
    "id": "google-ChIJo7L_QB",
    "name": "Gino's",
    "slug": "ginos",
    "category": "hair-salons",
    "area": "waterlooville",
    "postcode": "PO7 5LN",
    "address": "56 London Rd",
    "lat": 50.8681467,
    "lng": -1.0442205,
    "phone": "023 9226 3127",
    "website": "",
    "description": "Gino's in Waterlooville. Professional hair salons serving the local community....",
    "rating": 4.5,
    "review_count": 36,
    "featured": false
  },
  {
    "id": "google-ChIJl0cDTT",
    "name": "Hair of Dreams by Ellie Hodell",
    "slug": "hair-of-dreams-by-ellie-hodell",
    "category": "hair-salons",
    "area": "waterlooville",
    "postcode": "PO7 5AS",
    "address": "33A London Rd",
    "lat": 50.8580986,
    "lng": -1.0502036,
    "phone": "07731 960276",
    "website": "",
    "description": "Hair of Dreams by Ellie Hodell in Waterlooville. Professional hair salons serving the local community....",
    "rating": 3.7,
    "review_count": 3,
    "featured": false
  },
  {
    "id": "google-ChIJu61lXA",
    "name": "The Studio",
    "slug": "the-studio",
    "category": "hair-salons",
    "area": "waterlooville",
    "postcode": "PO7 5NU",
    "address": "The Studio",
    "lat": 50.8652837,
    "lng": -1.0346652,
    "phone": "07979 404044",
    "website": "",
    "description": "The Studio in Waterlooville. Professional hair salons serving the local community....",
    "rating": 5,
    "review_count": 4,
    "featured": false
  },
  {
    "id": "google-ChIJgzRrOJ",
    "name": "Uppercutz barbers",
    "slug": "uppercutz-barbers",
    "category": "hair-salons",
    "area": "waterlooville",
    "postcode": "PO7 5LJ",
    "address": "12 London Rd",
    "lat": 50.8664462,
    "lng": -1.0453033,
    "phone": "",
    "website": "https://www.facebook.com/profile.php?id=61563072044661",
    "description": "Uppercutz barbers in Waterlooville. Professional hair salons serving the local community....",
    "rating": 5,
    "review_count": 79,
    "featured": false
  },
  {
    "id": "google-ChIJw2UTxn",
    "name": "Ryval Fitness",
    "slug": "ryval-fitness",
    "category": "gyms",
    "area": "waterlooville",
    "postcode": "PO7 5QW",
    "address": "Liddiards Way",
    "lat": 50.8593653,
    "lng": -1.0317666,
    "phone": "07903 311295",
    "website": "",
    "description": "Ryval Fitness in Waterlooville. Professional gyms serving the local community....",
    "rating": 5,
    "review_count": 10,
    "featured": false
  },
  {
    "id": "google-ChIJV4XYch",
    "name": "Switched On Electrical Services (Southern) Ltd",
    "slug": "switched-on-electrical-services-southern-ltd",
    "category": "electricians",
    "area": "waterlooville",
    "postcode": "PO7 5LB",
    "address": "21 Purbrook Gardens",
    "lat": 50.8682588,
    "lng": -1.0452016,
    "phone": "07810 351839",
    "website": "https://www.hampshire-electrical.co.uk/electrician-in-purbrook/",
    "description": "Switched On Electrical Services (Southern) Ltd in Waterlooville. Professional electricians serving the local community....",
    "rating": 0,
    "review_count": 0,
    "featured": false
  },
  {
    "id": "google-ChIJE2pmBb",
    "name": "Rob Repairs",
    "slug": "rob-repairs",
    "category": "car-mechanics",
    "area": "waterlooville",
    "postcode": "PO7 7TH",
    "address": "36",
    "lat": 50.88718009999999,
    "lng": -1.0445963,
    "phone": "07389 760521",
    "website": "",
    "description": "Rob Repairs in Waterlooville. Professional car mechanics serving the local community....",
    "rating": 5,
    "review_count": 1,
    "featured": false
  },
  {
    "id": "google-ChIJ8ZR1a3",
    "name": "Fry & Kent Waterlooville",
    "slug": "fry-kent-waterlooville",
    "category": "estate-agents",
    "area": "waterlooville",
    "postcode": "PO7 7EL",
    "address": "75B London Rd",
    "lat": 50.87870479999999,
    "lng": -1.0333703,
    "phone": "023 9229 7788",
    "website": "http://www.fryandkent.com/",
    "description": "Fry & Kent Waterlooville in Waterlooville. Professional estate agents serving the local community....",
    "rating": 5,
    "review_count": 4,
    "featured": false
  },
  {
    "id": "google-ChIJndmYWD",
    "name": "Paprika",
    "slug": "paprika",
    "category": "restaurants",
    "area": "waterlooville",
    "postcode": "PO8 9LA",
    "address": "Horndean Precinct",
    "lat": 50.9134108,
    "lng": -0.9975842,
    "phone": "023 9259 6603",
    "website": "https://www.paprikacuisine.co.uk/",
    "description": "Paprika in Waterlooville. Professional restaurants serving the local community....",
    "rating": 4.3,
    "review_count": 136,
    "featured": true
  },
  {
    "id": "google-ChIJj81a81",
    "name": "Indian Cottage",
    "slug": "indian-cottage",
    "category": "restaurants",
    "area": "waterlooville",
    "postcode": "PO8 0DT",
    "address": "4 Havant Rd",
    "lat": 50.9132422,
    "lng": -0.9963086,
    "phone": "023 9259 2001",
    "website": "https://indiancottage-horndean.com/YjFc",
    "description": "Indian Cottage in Waterlooville. Professional restaurants serving the local community....",
    "rating": 4.1,
    "review_count": 224,
    "featured": true
  },
  {
    "id": "google-ChIJxZz0Tr",
    "name": "Mela",
    "slug": "mela",
    "category": "restaurants",
    "area": "waterlooville",
    "postcode": "PO8 0JL",
    "address": "40 Drift Rd",
    "lat": 50.9355556,
    "lng": -0.9994443999999999,
    "phone": "023 9242 7772",
    "website": "https://www.melaclanfield.co.uk/",
    "description": "Mela in Waterlooville. Professional restaurants serving the local community....",
    "rating": 4.5,
    "review_count": 265,
    "featured": true
  },
  {
    "id": "google-ChIJP2INEz",
    "name": "The Red Lion, Chalton",
    "slug": "the-red-lion-chalton",
    "category": "pubs",
    "area": "waterlooville",
    "postcode": "PO8 0BG",
    "address": "Chalton",
    "lat": 50.938781,
    "lng": -0.9603325999999999,
    "phone": "023 9259 2246",
    "website": "https://www.redlionchalton.co.uk/?utm_source=googlemybusiness&utm_medium=organic&utm_campaign=yext&utm_content=P224&y_source=1_MTIyMzcxNzUtNzE1LWxvY2F0aW9uLndlYnNpdGU=",
    "description": "The Red Lion, Chalton in Waterlooville. Professional pubs serving the local community....",
    "rating": 4.4,
    "review_count": 1201,
    "featured": true
  },
  {
    "id": "google-ChIJn4knWD",
    "name": "Premier Inn Portsmouth (Horndean) hotel",
    "slug": "premier-inn-portsmouth-horndean-hotel",
    "category": "restaurants",
    "area": "waterlooville",
    "postcode": "PO8 0DT",
    "address": "2 Havant Rd",
    "lat": 50.9129951,
    "lng": -0.9977687,
    "phone": "0333 321 4231",
    "website": "https://www.premierinn.com/gb/en/hotels/england/hampshire/portsmouth/portsmouth-horndean.html?cid=GLBC_PORRED",
    "description": "Premier Inn Portsmouth (Horndean) hotel in Waterlooville. Professional restaurants serving the local community....",
    "rating": 4.3,
    "review_count": 375,
    "featured": true
  },
  {
    "id": "google-ChIJ10wtMT",
    "name": "Nico's Food Bar",
    "slug": "nicos-food-bar",
    "category": "restaurants",
    "area": "waterlooville",
    "postcode": "PO8 0BZ",
    "address": "2 London Rd",
    "lat": 50.9136672,
    "lng": -0.9958374,
    "phone": "",
    "website": "https://www.restaurantorderingsystems.co.uk/ordering/?facebook=true&restaurant_uid=ea798ba0-648c-4553-bf15-e6bbeb6b6451&company_uid=53466bb9-8352-4a14-a992-749acde8c21e",
    "description": "Nico's Food Bar in Waterlooville. Professional restaurants serving the local community....",
    "rating": 4.8,
    "review_count": 122,
    "featured": true
  },
  {
    "id": "google-ChIJw17k2C",
    "name": "Crookley Park Estate",
    "slug": "crookley-park-estate",
    "category": "cafes",
    "area": "waterlooville",
    "postcode": "PO8 0AD",
    "address": "Crookley Park House",
    "lat": 50.9151485,
    "lng": -0.9949439999999999,
    "phone": "023 9259 6044",
    "website": "http://www.crookleyparkestate.co.uk/",
    "description": "Crookley Park Estate in Waterlooville. Professional cafes serving the local community....",
    "rating": 4.6,
    "review_count": 201,
    "featured": true
  },
  {
    "id": "google-ChIJkRT_WD",
    "name": "Cafe Dilara",
    "slug": "cafe-dilara",
    "category": "cafes",
    "area": "waterlooville",
    "postcode": "PO8 9LA",
    "address": "Horndean Precinct",
    "lat": 50.9134167,
    "lng": -0.9975632999999999,
    "phone": "",
    "website": "https://ukdato.org/details/cafe-dilara-ChIJkRT",
    "description": "Cafe Dilara in Waterlooville. Professional cafes serving the local community....",
    "rating": 0,
    "review_count": 0,
    "featured": false
  },
  {
    "id": "google-ChIJq8Ho9o",
    "name": "Everetts Pharmacy",
    "slug": "everetts-pharmacy",
    "category": "pharmacies",
    "area": "waterlooville",
    "postcode": "PO8 0BN",
    "address": "11 London Rd",
    "lat": 50.914229,
    "lng": -0.9966301,
    "phone": "023 9259 2166",
    "website": "http://www.everettspharmacy.co.uk/",
    "description": "Everetts Pharmacy in Waterlooville. Professional pharmacies serving the local community....",
    "rating": 4.6,
    "review_count": 23,
    "featured": false
  },
  {
    "id": "google-ChIJjYyjXx",
    "name": "Xcel Gymnastics",
    "slug": "xcel-gymnastics",
    "category": "gyms",
    "area": "waterlooville",
    "postcode": "PO8 9FB",
    "address": "Lakesmere Rd",
    "lat": 50.9104815,
    "lng": -1.0004311,
    "phone": "023 9259 9809",
    "website": "",
    "description": "Xcel Gymnastics in Waterlooville. Professional gyms serving the local community....",
    "rating": 4.5,
    "review_count": 15,
    "featured": false
  },
  {
    "id": "google-ChIJxUJuHI",
    "name": "Waterlooville Boxing Club",
    "slug": "waterlooville-boxing-club",
    "category": "gyms",
    "area": "waterlooville",
    "postcode": "PO7 7TU",
    "address": "3 St George's Walk",
    "lat": 50.879682,
    "lng": -1.0329878,
    "phone": "07729 389380",
    "website": "",
    "description": "Waterlooville Boxing Club in Waterlooville. Professional gyms serving the local community....",
    "rating": 5,
    "review_count": 5,
    "featured": false
  },
  {
    "id": "google-ChIJ_brkGh",
    "name": "Concorde Gymnastics Club",
    "slug": "concorde-gymnastics-club",
    "category": "gyms",
    "area": "waterlooville",
    "postcode": "PO8 9PQ",
    "address": "18 Barton Cross",
    "lat": 50.9135815,
    "lng": -1.0086848,
    "phone": "",
    "website": "http://concordegymnastics.tumblr.com/",
    "description": "Concorde Gymnastics Club in Waterlooville. Professional gyms serving the local community....",
    "rating": 5,
    "review_count": 3,
    "featured": false
  },
  {
    "id": "google-ChIJq6r-0K",
    "name": "Linkhorn Plumbing & Heating Ltd",
    "slug": "linkhorn-plumbing-heating-ltd",
    "category": "plumbers",
    "area": "waterlooville",
    "postcode": "PO8 0HL",
    "address": "9 St Michaels Way",
    "lat": 50.9278133,
    "lng": -0.9987653999999999,
    "phone": "07751 989491",
    "website": "http://linkhornphl.co.uk/",
    "description": "Linkhorn Plumbing & Heating Ltd in Waterlooville. Professional plumbers serving the local community....",
    "rating": 0,
    "review_count": 0,
    "featured": false
  },
  {
    "id": "google-ChIJvz5Vh7",
    "name": "Complete Property Services & Son Ltd",
    "slug": "complete-property-services-son-ltd",
    "category": "garden-centers",
    "area": "waterlooville",
    "postcode": "PO8 0EH",
    "address": "2 North Rd",
    "lat": 50.9259061,
    "lng": -1.0005149,
    "phone": "023 9259 2752",
    "website": "https://www.completeproperty75.co.uk/",
    "description": "Complete Property Services & Son Ltd in Waterlooville. Professional garden centers serving the local community....",
    "rating": 5,
    "review_count": 23,
    "featured": false
  },
  {
    "id": "google-ChIJ3yvwdZ",
    "name": "ADB Plumbing & Heating Ltd",
    "slug": "adb-plumbing-heating-ltd",
    "category": "plumbers",
    "area": "waterlooville",
    "postcode": "PO8 0WG",
    "address": "3 Bilberry Ave",
    "lat": 50.9430215,
    "lng": -0.9921922999999999,
    "phone": "07514 854960",
    "website": "http://www.adbplumbingandheating.co.uk/",
    "description": "ADB Plumbing & Heating Ltd in Waterlooville. Professional plumbers serving the local community....",
    "rating": 5,
    "review_count": 8,
    "featured": false
  },
  {
    "id": "google-ChIJnetAyh",
    "name": "M & K Autobody Ltd - Accident and Crash Repair",
    "slug": "m-k-autobody-ltd---accident-and-crash-repair",
    "category": "car-mechanics",
    "area": "waterlooville",
    "postcode": "PO8 0BB",
    "address": "Enterprise Industrial Estate",
    "lat": 50.9194883,
    "lng": -0.9993681000000001,
    "phone": "023 9259 9787",
    "website": "http://www.mkautobodyltd.co.uk/",
    "description": "M & K Autobody Ltd - Accident and Crash Repair in Waterlooville. Professional car mechanics serving the local community....",
    "rating": 4.7,
    "review_count": 15,
    "featured": false
  },
  {
    "id": "google-ChIJDdct8J",
    "name": "Hilltop Garage Services",
    "slug": "hilltop-garage-services",
    "category": "car-mechanics",
    "area": "waterlooville",
    "postcode": "PO8 0JE",
    "address": "299 London Rd",
    "lat": 50.933388,
    "lng": -0.9955428,
    "phone": "023 9259 6038",
    "website": "https://www.hilltopgarageservices.co.uk/",
    "description": "Hilltop Garage Services in Waterlooville. Professional car mechanics serving the local community....",
    "rating": 4.7,
    "review_count": 70,
    "featured": false
  },
  {
    "id": "google-ChIJ_xA4_x",
    "name": "Westfields Auto Centre Horndean",
    "slug": "westfields-auto-centre-horndean",
    "category": "car-mechanics",
    "area": "waterlooville",
    "postcode": "PO8 9JX",
    "address": "Unit 2",
    "lat": 50.9142245,
    "lng": -0.9982418999999999,
    "phone": "023 9257 1900",
    "website": "http://westfieldsautocentre.co.uk/",
    "description": "Westfields Auto Centre Horndean in Waterlooville. Professional car mechanics serving the local community....",
    "rating": 4.6,
    "review_count": 10,
    "featured": false
  },
  {
    "id": "google-ChIJVUGbuy",
    "name": "Horndean Vehicle Repair Centre Ltd",
    "slug": "horndean-vehicle-repair-centre-ltd",
    "category": "car-mechanics",
    "area": "waterlooville",
    "postcode": "PO8 0BN",
    "address": "27 London Rd",
    "lat": 50.9150922,
    "lng": -0.9970131999999999,
    "phone": "023 9259 9554",
    "website": "https://busiukmap.org/business/horndean-vehicle-repair-centre-ltd-chijvug",
    "description": "Horndean Vehicle Repair Centre Ltd in Waterlooville. Professional car mechanics serving the local community....",
    "rating": 4.7,
    "review_count": 12,
    "featured": false
  },
  {
    "id": "google-ChIJGdfj2C",
    "name": "MOT & Service World | Horndean",
    "slug": "mot-service-world-horndean",
    "category": "car-mechanics",
    "area": "waterlooville",
    "postcode": "PO8 0AA",
    "address": "The Warehouse",
    "lat": 50.9138167,
    "lng": -0.9954957,
    "phone": "023 9259 0420",
    "website": "https://www.motandserviceworld.co.uk/?utm_source=google&utm_medium=organic&utm_campaign=gbp_fareham&utm_term=car+service",
    "description": "MOT & Service World | Horndean in Waterlooville. Professional car mechanics serving the local community....",
    "rating": 4.8,
    "review_count": 66,
    "featured": false
  },
  {
    "id": "google-ChIJIXF2Ph",
    "name": "Northway Vehicle Maintenance",
    "slug": "northway-vehicle-maintenance",
    "category": "car-mechanics",
    "area": "waterlooville",
    "postcode": "PO8 0BL",
    "address": "2",
    "lat": 50.9206206,
    "lng": -0.9999127,
    "phone": "023 9217 7003",
    "website": "https://www.northwayvehiclemaintenance.co.uk/",
    "description": "Northway Vehicle Maintenance in Waterlooville. Professional car mechanics serving the local community....",
    "rating": 5,
    "review_count": 9,
    "featured": false
  },
  {
    "id": "google-ChIJu18XcQ",
    "name": "CK Automotive Specialists Ltd",
    "slug": "ck-automotive-specialists-ltd",
    "category": "car-mechanics",
    "area": "waterlooville",
    "postcode": "PO8 0AU",
    "address": "Unit 2A",
    "lat": 50.9098925,
    "lng": -0.9509399,
    "phone": "07533 818444",
    "website": "https://www.facebook.com/ckautomotivespecialist",
    "description": "CK Automotive Specialists Ltd in Waterlooville. Professional car mechanics serving the local community....",
    "rating": 5,
    "review_count": 6,
    "featured": false
  },
  {
    "id": "google-ChIJmwxk1r",
    "name": "Family Law Partners (Petersfield Office)",
    "slug": "family-law-partners-petersfield-office",
    "category": "solicitors",
    "area": "waterlooville",
    "postcode": "PO8 0JL",
    "address": "32 Drift Rd",
    "lat": 50.93525959999999,
    "lng": -0.9987725999999999,
    "phone": "023 9200 0086",
    "website": "https://www.familylawpartners.co.uk/contact-us/family-solicitor-petersfield",
    "description": "Family Law Partners (Petersfield Office) in Waterlooville. Professional solicitors serving the local community....",
    "rating": 0,
    "review_count": 0,
    "featured": false
  },
  {
    "id": "google-ChIJicbo-Q",
    "name": "Florin Bookkeeping Services",
    "slug": "florin-bookkeeping-services",
    "category": "accountants",
    "area": "waterlooville",
    "postcode": "PO8 9QX",
    "address": "Frogmore Cottage",
    "lat": 50.9089311,
    "lng": -1.0181797,
    "phone": "07872 028760",
    "website": "http://www.florinbookkeeping.co.uk/",
    "description": "Florin Bookkeeping Services in Waterlooville. Professional accountants serving the local community....",
    "rating": 5,
    "review_count": 3,
    "featured": false
  },
  {
    "id": "google-ChIJrzfs6b",
    "name": "Simply Balanced Solutions Ltd",
    "slug": "simply-balanced-solutions-ltd",
    "category": "accountants",
    "area": "waterlooville",
    "postcode": "PO8 0NS",
    "address": "18 New Rd",
    "lat": 50.943773,
    "lng": -1.0014442,
    "phone": "023 9200 6466",
    "website": "http://www.simplybalancedsolutions.co.uk/",
    "description": "Simply Balanced Solutions Ltd in Waterlooville. Professional accountants serving the local community....",
    "rating": 5,
    "review_count": 21,
    "featured": false
  },
  {
    "id": "google-ChIJ_WXxUJ",
    "name": "Manser Hunot Accountants ltd",
    "slug": "manser-hunot-accountants-ltd",
    "category": "accountants",
    "area": "waterlooville",
    "postcode": "PO7 6DX",
    "address": "183 Silverdale Dr",
    "lat": 50.89353939999999,
    "lng": -1.0386533,
    "phone": "07540 366562",
    "website": "http://www.manserhunot.co.uk/",
    "description": "Manser Hunot Accountants ltd in Waterlooville. Professional accountants serving the local community....",
    "rating": 0,
    "review_count": 0,
    "featured": false
  },
  {
    "id": "google-ChIJPXRvvp",
    "name": "The Country House Company",
    "slug": "the-country-house-company",
    "category": "estate-agents",
    "area": "waterlooville",
    "postcode": "PO7 4RZ",
    "address": "2",
    "lat": 50.9378828,
    "lng": -1.0700554,
    "phone": "01730 771222",
    "website": "http://www.countryhousecompany.co.uk/",
    "description": "The Country House Company in Waterlooville. Professional estate agents serving the local community....",
    "rating": 3.8,
    "review_count": 11,
    "featured": false
  },
  {
    "id": "wainwright-estates",
    "name": "Wainwright Estates",
    "slug": "wainwright-estates",
    "category": "estate-agents",
    "address": "Waterlooville, Hampshire",
    "phone": "023 9225 1234",
    "website": "https://www.wainwrightestates.co.uk",
    "description": "Professional estate agents serving Waterlooville and surrounding areas with sales and lettings services....",
    "rating": 4.6,
    "review_count": 63
  },
  {
    "id": "ohara-properties-estates",
    "name": "O'Hara Properties & Estates",
    "slug": "ohara-properties-estates",
    "category": "estate-agents",
    "address": "Waterlooville, Hampshire",
    "phone": "023 9225 8901",
    "website": "https://www.oharaproperties.co.uk",
    "description": "Independent estate agents offering personalized property services in Waterlooville....",
    "rating": 4,
    "review_count": 5
  },
  {
    "id": "sarah-oliver-property",
    "name": "Sarah Oliver Property",
    "slug": "sarah-oliver-property",
    "category": "estate-agents",
    "address": "Waterlooville, Hampshire",
    "phone": "023 9225 2468",
    "website": "https://www.saraholiverproperty.co.uk",
    "description": "Professional estate agent providing personalized property services in Waterlooville....",
    "rating": 4.9,
    "review_count": 36
  },
  {
    "id": "chinese-1760392112914-0",
    "name": "The Golden Dragon",
    "slug": "the-golden-dragon",
    "category": "restaurants",
    "area": "waterlooville",
    "postcode": "PO7 7EX",
    "address": "45 London Road, Waterlooville",
    "lat": 50.8785,
    "lng": -1.0335,
    "phone": "023 9226 1234",
    "website": "",
    "description": "Authentic Chinese takeaway serving traditional dishes. Popular for crispy duck, sweet and sour chicken, and special fried rice....",
    "rating": 4.5,
    "review_count": 127,
    "featured": false
  },
  {
    "id": "chinese-1760392112914-1",
    "name": "Peking Garden",
    "slug": "peking-garden",
    "category": "restaurants",
    "area": "waterlooville",
    "postcode": "PO7 7HB",
    "address": "12 High Street, Waterlooville",
    "lat": 50.878,
    "lng": -1.034,
    "phone": "023 9225 5678",
    "website": "",
    "description": "Family-run Chinese restaurant and takeaway. Known for authentic Cantonese dishes and friendly service....",
    "rating": 4.3,
    "review_count": 89,
    "featured": false
  },
  {
    "id": "chinese-1760392112914-2",
    "name": "China Express",
    "slug": "china-express",
    "category": "restaurants",
    "area": "horndean",
    "postcode": "PO8 9AB",
    "address": "8 Portsmouth Road, Horndean",
    "lat": 50.9175,
    "lng": -1.008,
    "phone": "023 9259 2345",
    "website": "",
    "description": "Modern Chinese takeaway offering traditional and contemporary dishes. Popular for quick service and generous portions....",
    "rating": 4.4,
    "review_count": 156,
    "featured": false
  },
  {
    "id": "chinese-1760392112914-3",
    "name": "Oriental Garden",
    "slug": "oriental-garden",
    "category": "restaurants",
    "area": "clanfield",
    "postcode": "PO8 0RJ",
    "address": "15 High Street, Clanfield",
    "lat": 50.931,
    "lng": -1.0135,
    "phone": "023 9259 3456",
    "website": "",
    "description": "Authentic Chinese and Thai cuisine. Family-owned business serving Clanfield and surrounding villages....",
    "rating": 4.6,
    "review_count": 203,
    "featured": false
  },
  {
    "id": "chinese-1760392112914-4",
    "name": "Happy Wok",
    "slug": "happy-wok",
    "category": "restaurants",
    "area": "waterlooville",
    "postcode": "PO7 7ES",
    "address": "28 London Road, Waterlooville",
    "lat": 50.879,
    "lng": -1.033,
    "phone": "023 9226 7890",
    "website": "",
    "description": "Modern Chinese takeaway with extensive menu. Known for fast service and fresh ingredients....",
    "rating": 4.2,
    "review_count": 94,
    "featured": false
  },
  {
    "id": "chinese-1760392112914-5",
    "name": "Dragon Palace",
    "slug": "dragon-palace",
    "category": "restaurants",
    "area": "horndean",
    "postcode": "PO8 9BB",
    "address": "22 Portsmouth Road, Horndean",
    "lat": 50.917,
    "lng": -1.0075,
    "phone": "023 9259 4567",
    "website": "",
    "description": "Traditional Chinese takeaway offering classic dishes. Popular for family meals and party platters....",
    "rating": 4.5,
    "review_count": 142,
    "featured": false
  },
  {
    "id": "builder-waterlooville-construction-ltd",
    "name": "Waterlooville Construction Ltd",
    "slug": "waterlooville-construction-ltd",
    "category": "builders",
    "area": "waterlooville",
    "postcode": "PO7 7AA",
    "address": "15 Industrial Estate, Waterlooville",
    "lat": 50.8817,
    "lng": -1.0324,
    "phone": "023 9225 1234",
    "website": "https://waterloovilleconstruction.co.uk",
    "description": "Professional building contractors specializing in residential and commercial construction. Full building services including extensions, renovations, a...",
    "rating": 4.7,
    "review_count": 89,
    "featured": true
  },
  {
    "id": "builder-hampshire-builders",
    "name": "Hampshire Builders",
    "slug": "hampshire-builders",
    "category": "builders",
    "area": "waterlooville",
    "postcode": "PO7 7BB",
    "address": "22 London Road, Waterlooville",
    "lat": 50.882,
    "lng": -1.031,
    "phone": "023 9225 5678",
    "website": "https://hampshirebuilders.co.uk",
    "description": "Local building contractors with over 20 years experience. Specializing in home improvements, loft conversions, and kitchen extensions....",
    "rating": 4.5,
    "review_count": 67,
    "featured": false
  },
  {
    "id": "builder-south-coast-construction",
    "name": "South Coast Construction",
    "slug": "south-coast-construction",
    "category": "builders",
    "area": "waterlooville",
    "postcode": "PO7 7CC",
    "address": "8 High Street, Waterlooville",
    "lat": 50.883,
    "lng": -1.03,
    "phone": "023 9225 9999",
    "website": "https://southcoastconstruction.co.uk",
    "description": "Established building company offering comprehensive construction services. From small repairs to major building projects....",
    "rating": 4.3,
    "review_count": 45,
    "featured": false
  },
  {
    "id": "builder-waterlooville-home-improvements",
    "name": "Waterlooville Home Improvements",
    "slug": "waterlooville-home-improvements",
    "category": "builders",
    "area": "waterlooville",
    "postcode": "PO7 7DD",
    "address": "45 Queens Road, Waterlooville",
    "lat": 50.884,
    "lng": -1.029,
    "phone": "023 9225 7777",
    "website": "",
    "description": "Local building specialists focusing on home improvements and renovations. Experienced team with attention to detail....",
    "rating": 4.6,
    "review_count": 52,
    "featured": false
  },
  {
    "id": "builder-pro-build-construction",
    "name": "Pro Build Construction",
    "slug": "pro-build-construction",
    "category": "builders",
    "area": "waterlooville",
    "postcode": "PO7 7EE",
    "address": "12 Station Road, Waterlooville",
    "lat": 50.885,
    "lng": -1.028,
    "phone": "023 9225 4444",
    "website": "https://probuildconstruction.co.uk",
    "description": "Professional building contractors offering full construction services. Specializing in extensions, conversions, and new builds....",
    "rating": 4.4,
    "review_count": 38,
    "featured": false
  }
]